	t	ID	x	y	z	vx	vy	vz	yaw	roll	pitch	
-6277438562204192487878988888393020692503707483087375482269988814848.000000	10	1.0677	-0.0317	0.0901	12.8123	-0.3803	1.0806	0.1930	-0.5855	-0.4557	
-6277438562204192487878988888393020692503707483087375482269988814848.000000	10	1.0677	-0.0316	0.0901	12.8122	-0.3786	1.0813	0.0790	-0.5802	-0.4182	
-6277438562204192487878988888393020692503707483087375482269988814848.000000	10	1.0677	-0.0316	0.0901	12.8124	-0.3788	1.0811	0.1190	-0.5450	-0.4111	
-6277438562204192487878988888393020692503707483087375482269988814848.000000	10	1.0677	-0.0316	0.0901	12.8121	-0.3789	1.0808	0.0820	-0.5396	-0.4361	
-6277438562204192487878988888393020692503707483087375482269988814848.000000	10	1.0677	-0.0316	0.0901	12.8129	-0.3794	1.0807	0.0882	-0.5605	-0.4056	
-6277438562204192487878988888393020692503707483087375482269988814848.000000	10	1.0677	-0.0315	0.0902	12.8128	-0.3785	1.0820	0.1210	-0.5610	-0.4357	
-6277438562204192487878988888393020692503707483087375482269988814848.000000	10	1.0677	-0.0316	0.0901	12.8125	-0.3786	1.0811	0.1113	-0.5329	-0.4100	
-6277438562204192487878988888393020692503707483087375482269988814848.000000	10	1.0677	-0.0316	0.0900	12.8126	-0.3789	1.0803	0.1329	-0.6062	-0.4870	
-6277438562204192487878988888393020692503707483087375482269988814848.000000	10	1.0677	-0.0316	0.0901	12.8118	-0.3788	1.0810	0.0916	-0.6519	-0.4612	
-6277438562204192487878988888393020692503707483087375482269988814848.000000	10	1.0677	-0.0316	0.0901	12.8124	-0.3787	1.0810	0.1139	-0.5446	-0.4111	
-6277438562204192487878988888393020692503707483087375482269988814848.000000	10	1.0677	-0.0315	0.0901	-0.0004	0.0020	0.0008	0.0810	-0.6000	-0.4216	
-6277438562204192487878988888393020692503707483087375482269988814848.000000	10	1.0677	-0.0316	0.0901	0.0005	-0.0001	-0.0003	0.1208	-0.5461	-0.4109	
-6277438562204192487878988888393020692503707483087375482269988814848.000000	10	1.0677	-0.0315	0.0902	0.0004	0.0004	0.0008	0.1222	-0.5652	-0.4353	
-6277438562204192487878988888393020692503707483087375482269988814848.000000	10	1.0677	-0.0316	0.0901	0.0006	0.0002	0.0007	0.1376	-0.6179	-0.4870	
-6277438562204192487878988888393020692503707483087375482269988814848.000000	10	1.0677	-0.0316	0.0902	-0.0002	-0.0004	0.0016	0.1897	-0.5415	-0.4097	
-6277438562204192487878988888393020692503707483087375482269988814848.000000	10	1.0677	-0.0315	0.0901	-0.0001	-0.0000	-0.0006	0.1185	-0.6135	-0.4784	
-6277438562204192487878988888393020692503707483087375482269988814848.000000	10	1.0677	-0.0316	0.0901	0.0002	-0.0002	-0.0001	0.1104	-0.5528	-0.4220	
-6277438562204192487878988888393020692503707483087375482269988814848.000000	10	1.0677	-0.0316	0.0901	0.0002	0.0000	0.0011	0.1360	-0.6303	-0.5034	
-6277438562204192487878988888393020692503707483087375482269988814848.000000	10	1.0677	-0.0316	0.0902	0.0011	0.0001	0.0009	0.0673	-0.5462	-0.3677	
-6277438562204192487878988888393020692503707483087375482269988814848.000000	10	1.0677	-0.0316	0.0901	0.0001	-0.0002	0.0006	0.1350	-0.6400	-0.4801	
-6277438562204192487878988888393020692503707483087375482269988814848.000000	10	1.0677	-0.0316	0.0901	0.0010	-0.0006	-0.0002	0.1321	-0.6207	-0.4883	
-6277438562204192487878988888393020692503707483087375482269988814848.000000	10	1.0677	-0.0315	0.0901	-0.0003	0.0002	0.0001	0.1392	-0.5481	-0.4268	
-6277438562204192487878988888393020692503707483087375482269988814848.000000	10	1.0677	-0.0315	0.0901	0.0002	0.0004	-0.0006	0.1140	-0.4908	-0.4046	
-6277438562204192487878988888393020692503707483087375482269988814848.000000	10	1.0677	-0.0316	0.0901	-0.0000	0.0001	-0.0004	0.1137	-0.5453	-0.4196	
-6277438562204192487878988888393020692503707483087375482269988814848.000000	10	1.0677	-0.0316	0.0902	-0.0004	0.0009	-0.0005	0.0991	-0.6846	-0.4956	
-6277438562204192487878988888393020692503707483087375482269988814848.000000	10	1.0677	-0.0316	0.0901	0.0000	-0.0003	-0.0005	0.1303	-0.5623	-0.4402	
-6277438562204192487878988888393020692503707483087375482269988814848.000000	10	1.0677	-0.0315	0.0902	0.0001	0.0003	0.0009	0.1221	-0.5652	-0.4189	
-6277438562204192487878988888393020692503707483087375482269988814848.000000	10	1.0677	-0.0316	0.0901	0.0000	0.0001	-0.0003	0.1226	-0.5456	-0.4422	
-6277438562204192487878988888393020692503707483087375482269988814848.000000	10	1.0677	-0.0315	0.0900	-0.0008	0.0002	-0.0014	0.1556	-0.5958	-0.4687	
-6277438562204192487878988888393020692503707483087375482269988814848.000000	10	1.0677	-0.0315	0.0902	0.0002	0.0003	0.0002	0.1233	-0.5585	-0.4311	
-6277438562204192487878988888393020692503707483087375482269988814848.000000	10	1.0677	-0.0316	0.0901	-0.0006	0.0002	-0.0006	0.1239	-0.5991	-0.4606	
-6277438562204192487878988888393020692503707483087375482269988814848.000000	10	1.0677	-0.0316	0.0900	0.0003	-0.0003	-0.0007	0.1181	-0.6073	-0.4847	
-6277438562204192487878988888393020692503707483087375482269988814848.000000	10	1.0677	-0.0315	0.0901	-0.0002	-0.0005	-0.0001	0.0981	-0.5109	-0.3895	
-6277438562204192487878988888393020692503707483087375482269988814848.000000	10	1.0677	-0.0315	0.0902	0.0002	0.0002	0.0010	0.1166	-0.5654	-0.4294	
-6277438562204192487878988888393020692503707483087375482269988814848.000000	10	1.0677	-0.0316	0.0901	0.0004	-0.0003	-0.0008	0.0852	-0.6394	-0.4405	
-6277438562204192487878988888393020692503707483087375482269988814848.000000	10	1.0677	-0.0316	0.0902	0.0001	0.0003	0.0009	0.1204	-0.5655	-0.4264	
-6277438562204192487878988888393020692503707483087375482269988814848.000000	10	1.0677	-0.0317	0.0901	-0.0005	-0.0013	-0.0006	0.1882	-0.5228	-0.3924	
-6277438562204192487878988888393020692503707483087375482269988814848.000000	10	1.0677	-0.0315	0.0902	0.0002	0.0005	0.0008	0.1186	-0.4045	-0.3124	
-6277438562204192487878988888393020692503707483087375482269988814848.000000	10	1.0677	-0.0315	0.0900	0.0001	0.0000	0.0000	0.1200	-0.4805	-0.4206	
-6277438562204192487878988888393020692503707483087375482269988814848.000000	10	1.0678	-0.0316	0.0902	0.0005	-0.0003	0.0002	0.1244	-0.5958	-0.4388	
-6277438562204192487878988888393020692503707483087375482269988814848.000000	10	1.0677	-0.0316	0.0901	0.0002	-0.0002	0.0006	0.1222	-0.5541	-0.4054	
-6277438562204192487878988888393020692503707483087375482269988814848.000000	10	1.0677	-0.0316	0.0901	0.0003	0.0001	0.0011	0.1298	-0.6287	-0.4993	
-6277438562204192487878988888393020692503707483087375482269988814848.000000	10	1.0677	-0.0315	0.0901	-0.0008	0.0006	-0.0001	0.0695	-0.6109	-0.4376	
-6277438562204192487878988888393020692503707483087375482269988814848.000000	10	1.0677	-0.0316	0.0901	-0.0005	-0.0002	-0.0012	0.1146	-0.4778	-0.4326	
-6277438562204192487878988888393020692503707483087375482269988814848.000000	10	1.0677	-0.0317	0.0901	-0.0002	-0.0010	-0.0002	0.1838	-0.5528	-0.4347	
-6277438562204192487878988888393020692503707483087375482269988814848.000000	10	1.0677	-0.0315	0.0901	-0.0003	0.0001	-0.0008	0.1061	-0.5326	-0.4080	
-6277438562204192487878988888393020692503707483087375482269988814848.000000	10	1.0677	-0.0316	0.0900	0.0002	0.0012	-0.0010	0.1302	-0.5944	-0.4799	
-6277438562204192487878988888393020692503707483087375482269988814848.000000	10	1.0677	-0.0315	0.0902	-0.0002	-0.0002	0.0001	0.1182	-0.5586	-0.4196	
-6277438562204192487878988888393020692503707483087375482269988814848.000000	10	1.0678	-0.0315	0.0902	0.0009	0.0004	0.0019	0.1216	-0.5259	-0.4103	
-6277438562204192487878988888393020692503707483087375482269988814848.000000	10	1.0677	-0.0315	0.0901	-0.0009	0.0012	-0.0004	0.0578	-0.5538	-0.3873	
-6277438562204192487878988888393020692503707483087375482269988814848.000000	10	1.0678	-0.0316	0.0902	0.0007	0.0001	0.0008	0.1260	-0.5915	-0.4440	
-6277438562204192487878988888393020692503707483087375482269988814848.000000	10	1.0677	-0.0315	0.0901	-0.0011	0.0004	-0.0006	0.0877	-0.6404	-0.4745	
-6277438562204192487878988888393020692503707483087375482269988814848.000000	10	1.0677	-0.0316	0.0901	0.0005	-0.0007	0.0001	0.1134	-0.5361	-0.4186	
-6277438562204192487878988888393020692503707483087375482269988814848.000000	10	1.0678	-0.0316	0.0901	0.0007	-0.0000	0.0006	0.1321	-0.6207	-0.5055	
-6277438562204192487878988888393020692503707483087375482269988814848.000000	10	1.0677	-0.0316	0.0901	0.0001	0.0015	0.0002	0.1435	-0.5447	-0.4350	
-6277438562204192487878988888393020692503707483087375482269988814848.000000	10	1.0677	-0.0315	0.0901	-0.0003	-0.0000	0.0003	0.0745	-0.5937	-0.4226	
-6277438562204192487878988888393020692503707483087375482269988814848.000000	10	1.0677	-0.0316	0.0901	-0.0001	-0.0000	0.0008	0.1184	-0.5560	-0.4992	
-6277438562204192487878988888393020692503707483087375482269988814848.000000	10	1.0677	-0.0315	0.0902	-0.0001	0.0001	0.0000	0.1320	-0.5605	-0.4313	
-6277438562204192487878988888393020692503707483087375482269988814848.000000	10	1.0677	-0.0316	0.0901	-0.0011	-0.0005	-0.0012	0.0453	-0.5924	-0.3803	
-6277438562204192487878988888393020692503707483087375482269988814848.000000	10	1.0677	-0.0315	0.0900	-0.0000	-0.0006	-0.0018	0.1020	-0.3972	-0.4323	
-6277438562204192487878988888393020692503707483087375482269988814848.000000	10	1.0677	-0.0315	0.0901	-0.0008	0.0003	-0.0015	0.1322	-0.5910	-0.4818	
-6277438562204192487878988888393020692503707483087375482269988814848.000000	10	1.0677	-0.0316	0.0901	0.0006	-0.0004	0.0002	0.1204	-0.5461	-0.4223	
-6277438562204192487878988888393020692503707483087375482269988814848.000000	10	1.0677	-0.0315	0.0902	-0.0001	0.0007	0.0013	0.0871	-0.5984	-0.4264	
-6277438562204192487878988888393020692503707483087375482269988814848.000000	10	1.0677	-0.0316	0.0900	-0.0007	-0.0003	-0.0009	0.0719	-0.5865	-0.3931	
-6277438562204192487878988888393020692503707483087375482269988814848.000000	10	1.0677	-0.0316	0.0901	0.0003	-0.0001	-0.0000	0.1185	-0.5502	-0.4304	
-6277438562204192487878988888393020692503707483087375482269988814848.000000	10	1.0675	-0.0313	0.0904	-0.0021	0.0033	0.0037	0.0846	-0.2270	-0.0741	
-6277438562204192487878988888393020692503707483087375482269988814848.000000	10	1.0677	-0.0315	0.0902	-0.0002	0.0003	0.0011	0.0819	-0.6067	-0.4212	
-6277438562204192487878988888393020692503707483087375482269988814848.000000	10	1.0677	-0.0316	0.0902	0.0001	-0.0003	-0.0001	0.1250	-0.5649	-0.4367	
-6277438562204192487878988888393020692503707483087375482269988814848.000000	10	1.0677	-0.0316	0.0901	0.0009	0.0001	0.0006	0.1422	-0.5784	-0.4405	
-6277438562204192487878988888393020692503707483087375482269988814848.000000	10	1.0677	-0.0316	0.0901	0.0005	-0.0003	0.0016	0.1406	-0.6249	-0.4853	
-6277438562204192487878988888393020692503707483087375482269988814848.000000	10	1.0677	-0.0315	0.0901	0.0003	0.0001	0.0001	0.1216	-0.5151	-0.4088	
-6277438562204192487878988888393020692503707483087375482269988814848.000000	10	1.0677	-0.0315	0.0902	0.0005	0.0001	0.0008	0.1244	-0.5632	-0.4318	
-6277438562204192487878988888393020692503707483087375482269988814848.000000	10	1.0677	-0.0316	0.0901	-0.0000	-0.0007	-0.0015	0.1126	-0.5392	-0.4110	
-6277438562204192487878988888393020692503707483087375482269988814848.000000	10	1.0677	-0.0315	0.0901	0.0001	0.0006	0.0007	0.1251	-0.5383	-0.4198	
-6277438562204192487878988888393020692503707483087375482269988814848.000000	10	1.0677	-0.0316	0.0901	-0.0002	0.0001	0.0002	0.1347	-0.6215	-0.4929	
-6277438562204192487878988888393020692503707483087375482269988814848.000000	10	1.0677	-0.0316	0.0902	0.0028	-0.0035	-0.0028	0.1106	-0.5526	-0.3874	
-6277438562204192487878988888393020692503707483087375482269988814848.000000	10	1.0677	-0.0316	0.0901	0.0001	-0.0005	-0.0012	0.1186	-0.5471	-0.4064	
-6277438562204192487878988888393020692503707483087375482269988814848.000000	10	1.0677	-0.0316	0.0901	-0.0003	-0.0003	-0.0013	0.1279	-0.5974	-0.4718	
-6277438562204192487878988888393020692503707483087375482269988814848.000000	10	1.0678	-0.0316	0.0901	0.0002	-0.0003	0.0001	0.1224	-0.5829	-0.4424	
-6277438562204192487878988888393020692503707483087375482269988814848.000000	10	1.0677	-0.0316	0.0901	-0.0002	-0.0001	-0.0005	0.1174	-0.5351	-0.4169	
-6277438562204192487878988888393020692503707483087375482269988814848.000000	10	1.0677	-0.0315	0.0902	0.0003	-0.0001	0.0014	0.1133	-0.5383	-0.3865	
-6277438562204192487878988888393020692503707483087375482269988814848.000000	10	1.0678	-0.0316	0.0902	0.0004	-0.0002	-0.0000	0.1136	-0.5690	-0.4452	
-6277438562204192487878988888393020692503707483087375482269988814848.000000	10	1.0677	-0.0315	0.0901	-0.0004	0.0002	0.0004	0.0846	-0.5887	-0.4201	
-6277438562204192487878988888393020692503707483087375482269988814848.000000	10	1.0677	-0.0315	0.0901	-0.0005	0.0001	0.0003	0.0959	-0.5756	-0.4172	
-6277438562204192487878988888393020692503707483087375482269988814848.000000	10	1.0677	-0.0315	0.0902	0.0001	0.0001	0.0007	0.1202	-0.5667	-0.4229	
-6277438562204192487878988888393020692503707483087375482269988814848.000000	10	1.0677	-0.0315	0.0902	0.0000	0.0003	-0.0003	0.1204	-0.5730	-0.4274	
-6277438562204192487878988888393020692503707483087375482269988814848.000000	10	1.0677	-0.0315	0.0901	0.0003	0.0006	0.0003	0.0856	-0.5175	-0.3877	
-6277438562204192487878988888393020692503707483087375482269988814848.000000	10	1.0678	-0.0316	0.0902	0.0007	0.0003	0.0016	0.1028	-0.5728	-0.4119	
-6277438562204192487878988888393020692503707483087375482269988814848.000000	10	1.0677	-0.0315	0.0901	-0.0009	0.0004	-0.0009	0.1399	-0.5539	-0.4208	
-6277438562204192487878988888393020692503707483087375482269988814848.000000	10	1.0677	-0.0315	0.0902	0.0005	0.0004	0.0011	0.1203	-0.5430	-0.4171	
-6277438562204192487878988888393020692503707483087375482269988814848.000000	10	1.0677	-0.0315	0.0902	-0.0005	0.0008	0.0002	0.0573	-0.5647	-0.3918	
-6277438562204192487878988888393020692503707483087375482269988814848.000000	10	1.0677	-0.0315	0.0901	-0.0006	0.0006	-0.0003	0.1211	-0.5618	-0.4237	
-6277438562204192487878988888393020692503707483087375482269988814848.000000	10	1.0677	-0.0315	0.0901	-0.0002	0.0001	-0.0000	0.0792	-0.5789	-0.4181	
-6277438562204192487878988888393020692503707483087375482269988814848.000000	10	1.0677	-0.0316	0.0901	0.0009	-0.0009	0.0002	0.0897	-0.5818	-0.3885	
-6277438562204192487878988888393020692503707483087375482269988814848.000000	10	1.0677	-0.0316	0.0901	-0.0001	-0.0003	-0.0011	0.1283	-0.5519	-0.4363	
-6277438562204192487878988888393020692503707483087375482269988814848.000000	10	1.0677	-0.0315	0.0902	-0.0001	-0.0001	-0.0001	0.1146	-0.5586	-0.4206	
-6277438562204192487878988888393020692503707483087375482269988814848.000000	10	1.0677	-0.0315	0.0902	0.0002	-0.0001	0.0008	0.1215	-0.5524	-0.4358	
-6277438562204192487878988888393020692503707483087375482269988814848.000000	10	1.0677	-0.0316	0.0901	-0.0007	-0.0000	-0.0012	0.1222	-0.5489	-0.4068	
-6277438562204192487878988888393020692503707483087375482269988814848.000000	10	1.0677	-0.0315	0.0901	0.0004	0.0000	0.0002	0.1282	-0.5353	-0.4245	
-6277438562204192487878988888393020692503707483087375482269988814848.000000	10	1.0677	-0.0316	0.0901	-0.0001	-0.0003	-0.0013	0.1317	-0.5768	-0.4441	
-6277438562204192487878988888393020692503707483087375482269988814848.000000	10	1.0678	-0.0315	0.0900	0.0007	-0.0005	-0.0017	0.1073	-0.5082	-0.3984	
712896789.000000	10	1.0677	-0.0316	0.0901	-0.0000	-0.0005	-0.0001	0.1320	-0.6291	-0.4871	
712896789.000000	10	1.0677	-0.0315	0.0901	0.0008	0.0000	-0.0005	0.1225	-0.5707	-0.4546	
712896789.000000	10	1.0677	-0.0315	0.0901	-0.0002	0.0009	-0.0006	0.1220	-0.5192	-0.4205	
712896789.000000	10	1.0677	-0.0315	0.0902	-0.0003	0.0007	0.0014	0.0746	-0.6074	-0.4234	
712896789.000000	10	1.0678	-0.0316	0.0901	0.0001	-0.0002	-0.0006	0.1243	-0.6309	-0.4980	
712896789.000000	10	1.0677	-0.0316	0.0901	-0.0002	-0.0004	-0.0011	0.1318	-0.5409	-0.4328	
712896789.000000	10	1.0677	-0.0315	0.0902	0.0004	0.0003	0.0010	0.1186	-0.5637	-0.4364	
712896789.000000	10	1.0677	-0.0316	0.0901	-0.0005	-0.0001	-0.0001	0.1439	-0.5421	-0.4125	
712896789.000000	10	1.0677	-0.0315	0.0901	-0.0004	0.0001	0.0002	0.1189	-0.5280	-0.4198	
712896789.000000	10	1.0677	-0.0316	0.0901	-0.0008	-0.0004	0.0001	0.1344	-0.6027	-0.4813	
712896789.000000	10	1.0677	-0.0315	0.0901	-0.0007	0.0004	0.0003	0.0921	-0.6617	-0.4839	
712896789.000000	10	1.0677	-0.0315	0.0902	0.0001	-0.0001	0.0010	0.1205	-0.5652	-0.4303	
712896789.000000	10	1.0678	-0.0316	0.0901	0.0004	-0.0006	0.0008	0.1218	-0.5717	-0.4413	
712896789.000000	10	1.0677	-0.0315	0.0902	0.0005	-0.0003	-0.0003	0.1191	-0.5581	-0.4309	
712896789.000000	10	1.0677	-0.0315	0.0902	-0.0002	0.0002	0.0008	0.1088	-0.5408	-0.4042	
712896789.000000	10	1.0677	-0.0316	0.0901	0.0001	-0.0000	-0.0000	0.1118	-0.5476	-0.4264	
712896789.000000	10	1.0678	-0.0316	0.0901	0.0003	-0.0003	-0.0003	0.1267	-0.5839	-0.4538	
712896789.000000	10	1.0677	-0.0316	0.0902	0.0007	0.0000	0.0010	0.1298	-0.5696	-0.4362	
712896789.000000	10	1.0677	-0.0315	0.0901	0.0000	-0.0001	0.0005	0.1280	-0.6188	-0.4918	
712896789.000000	10	1.0677	-0.0315	0.0901	0.0005	0.0000	0.0007	0.1068	-0.5303	-0.3750	
712896789.000000	10	1.0677	-0.0315	0.0901	-0.0001	-0.0002	-0.0001	0.0928	-0.6646	-0.4926	
712896789.000000	10	1.0677	-0.0315	0.0901	-0.0000	0.0001	-0.0004	0.1207	-0.6191	-0.4837	
712896789.000000	10	1.0677	-0.0315	0.0902	-0.0008	0.0006	0.0006	0.0827	-0.5964	-0.4319	
712896789.000000	10	1.0677	-0.0315	0.0902	-0.0000	0.0001	0.0000	0.1147	-0.5632	-0.4181	
712896789.000000	10	1.0677	-0.0316	0.0901	-0.0004	-0.0003	-0.0012	0.1126	-0.5316	-0.4056	
712896789.000000	10	1.0677	-0.0316	0.0900	-0.0005	0.0000	-0.0004	0.1243	-0.5886	-0.4688	
712896789.000000	10	1.0677	-0.0316	0.0901	-0.0002	-0.0002	-0.0006	0.1056	-0.5370	-0.4043	
712896789.000000	10	1.0677	-0.0316	0.0901	-0.0003	-0.0000	-0.0011	0.1102	-0.5343	-0.4142	
712896789.000000	10	1.0677	-0.0315	0.0901	-0.0003	0.0001	-0.0003	0.0783	-0.5869	-0.4258	
712896789.000000	10	1.0678	-0.0316	0.0901	0.0002	-0.0001	-0.0002	0.1303	-0.6264	-0.4926	
712896789.000000	10	1.0677	-0.0316	0.0901	0.0007	-0.0002	-0.0008	0.1133	-0.5410	-0.4179	
712896789.000000	10	1.0675	-0.0313	0.0903	-0.0028	0.0030	0.0020	0.0772	-0.2659	-0.1251	
712896789.000000	10	1.0677	-0.0315	0.0901	0.0004	0.0007	-0.0011	0.0980	-0.4624	-0.4056	
712896789.000000	10	1.0677	-0.0316	0.0900	-0.0004	-0.0002	-0.0015	0.1207	-0.5941	-0.4679	
712896789.000000	10	1.0676	-0.0315	0.0901	-0.0007	0.0008	0.0006	0.0636	-0.5588	-0.3912	
712896789.000000	10	1.0677	-0.0316	0.0900	-0.0000	-0.0000	-0.0001	0.1160	-0.5957	-0.4654	
712896789.000000	10	1.0677	-0.0316	0.0902	-0.0000	0.0000	0.0007	0.1205	-0.5760	-0.4396	
712896789.000000	10	1.0677	-0.0315	0.0901	0.0003	0.0005	0.0005	0.1346	-0.5944	-0.5008	
712896789.000000	10	1.0677	-0.0315	0.0901	0.0003	0.0002	0.0005	0.1151	-0.5933	-0.4653	
712896789.000000	10	1.0677	-0.0315	0.0901	-0.0001	0.0002	-0.0006	0.1397	-0.5233	-0.4480	
712896789.000000	10	1.0677	-0.0316	0.0901	0.0002	-0.0002	0.0001	0.1237	-0.5469	-0.4295	
712896789.000000	10	1.0677	-0.0315	0.0901	0.0022	-0.0028	-0.0022	0.0715	-0.5731	-0.4011	
712896789.000000	10	1.0677	-0.0315	0.0902	-0.0002	-0.0005	0.0014	0.0648	-0.5656	-0.4069	
712896789.000000	10	1.0676	-0.0315	0.0901	-0.0007	0.0006	0.0012	0.0551	-0.6051	-0.4055	
712896789.000000	10	1.0677	-0.0315	0.0901	0.0001	-0.0003	-0.0003	0.0855	-0.5783	-0.4232	
712896789.000000	10	1.0677	-0.0316	0.0901	0.0005	-0.0001	0.0005	0.1158	-0.5478	-0.4139	
712896789.000000	10	1.0677	-0.0316	0.0901	-0.0003	0.0001	-0.0004	0.1219	-0.5547	-0.4162	
712896789.000000	10	1.0677	-0.0316	0.0902	-0.0010	-0.0014	0.0011	0.1579	-0.5950	-0.4140	
712896789.000000	10	1.0677	-0.0315	0.0901	0.0001	-0.0002	-0.0003	0.1261	-0.6107	-0.4881	
712896789.000000	10	1.0677	-0.0316	0.0900	-0.0007	-0.0002	-0.0002	0.1349	-0.5928	-0.4755	
712896789.000000	10	1.0677	-0.0316	0.0902	-0.0002	-0.0007	0.0012	0.1916	-0.5408	-0.4021	
712896789.000000	10	1.0677	-0.0316	0.0901	0.0006	-0.0003	-0.0003	0.1136	-0.5421	-0.4202	
712896789.000000	10	1.0677	-0.0315	0.0901	-0.0007	-0.0004	-0.0015	0.0828	-0.5764	-0.4115	
712896789.000000	10	1.0677	-0.0315	0.0901	0.0003	-0.0002	-0.0005	0.0764	-0.5682	-0.4090	
712896789.000000	10	1.0678	-0.0315	0.0902	0.0014	-0.0004	0.0008	0.1019	-0.5456	-0.4034	
712896789.000000	10	1.0677	-0.0315	0.0902	-0.0000	0.0003	0.0011	0.1364	-0.5589	-0.4356	
712896789.000000	10	1.0677	-0.0315	0.0902	0.0001	0.0002	0.0005	0.1183	-0.5580	-0.4258	
712896789.000000	10	1.0677	-0.0316	0.0900	0.0004	0.0009	-0.0019	0.1293	-0.5807	-0.4837	
712896789.000000	10	1.0678	-0.0315	0.0902	0.0005	0.0002	0.0007	0.0893	-0.5501	-0.4062	
712896789.000000	10	1.0677	-0.0315	0.0902	0.0006	0.0001	0.0013	0.1221	-0.5623	-0.4209	
712896789.000000	10	1.0677	-0.0316	0.0900	-0.0002	0.0008	-0.0018	0.1318	-0.5911	-0.4670	
712896789.000000	10	1.0678	-0.0315	0.0902	0.0004	0.0007	0.0011	0.1142	-0.5250	-0.4080	
712896789.000000	10	1.0677	-0.0315	0.0902	0.0010	0.0001	0.0009	0.1132	-0.5658	-0.4316	
712896789.000000	10	1.0677	-0.0316	0.0902	0.0009	-0.0005	0.0007	0.1211	-0.5772	-0.4519	
712896789.000000	10	1.0677	-0.0315	0.0901	-0.0009	0.0000	-0.0010	0.1144	-0.5442	-0.4171	
712896789.000000	10	1.0677	-0.0316	0.0901	0.0001	-0.0003	-0.0009	0.1091	-0.5301	-0.4066	
712896789.000000	10	1.0677	-0.0316	0.0902	0.0002	-0.0004	-0.0000	0.1231	-0.5814	-0.4460	
712896789.000000	10	1.0677	-0.0316	0.0901	0.0001	-0.0004	0.0007	0.0354	-0.5667	-0.4014	
712896789.000000	10	1.0677	-0.0315	0.0901	-0.0004	-0.0001	-0.0010	0.0953	-0.5333	-0.4060	
712896789.000000	10	1.0677	-0.0315	0.0901	-0.0003	0.0002	-0.0005	0.1051	-0.5018	-0.3893	
712896789.000000	10	1.0678	-0.0315	0.0902	0.0009	0.0005	0.0016	0.0921	-0.5586	-0.4055	
712896789.000000	10	1.0677	-0.0315	0.0901	-0.0005	-0.0005	-0.0010	0.1168	-0.5359	-0.4159	
712896789.000000	10	1.0677	-0.0315	0.0902	-0.0007	0.0002	-0.0002	0.0911	-0.6567	-0.4909	
712896789.000000	10	1.0675	-0.0313	0.0904	-0.0027	0.0035	0.0032	0.0609	-0.2233	-0.0767	
712896789.000000	10	1.0677	-0.0316	0.0901	0.0003	-0.0003	-0.0001	0.1223	-0.5548	-0.4306	
712896789.000000	10	1.0677	-0.0315	0.0901	-0.0003	0.0003	-0.0000	0.1205	-0.5457	-0.4172	
712896789.000000	10	1.0677	-0.0315	0.0902	-0.0002	0.0003	0.0001	0.1224	-0.5698	-0.4310	
712896789.000000	10	1.0677	-0.0315	0.0901	-0.0001	0.0007	-0.0007	0.1388	-0.5876	-0.4743	
712896789.000000	10	1.0677	-0.0316	0.0901	-0.0003	-0.0003	0.0000	0.1138	-0.5381	-0.4196	
712896789.000000	10	1.0677	-0.0315	0.0902	0.0002	0.0002	0.0007	0.1342	-0.5590	-0.4307	
712896789.000000	10	1.0677	-0.0315	0.0901	-0.0007	0.0001	-0.0008	0.0996	-0.5248	-0.3927	
712896789.000000	10	1.0677	-0.0315	0.0901	-0.0001	0.0000	-0.0000	0.1153	-0.5503	-0.4257	
712896789.000000	10	1.0677	-0.0315	0.0901	0.0003	-0.0003	-0.0011	0.1325	-0.5957	-0.4888	
712896789.000000	10	1.0677	-0.0316	0.0901	0.0023	-0.0035	-0.0040	0.1222	-0.5432	-0.4125	
712896789.000000	10	1.0677	-0.0315	0.0902	0.0002	0.0004	0.0010	0.1105	-0.5622	-0.4261	
712896789.000000	10	1.0677	-0.0316	0.0900	-0.0002	-0.0001	-0.0005	0.1201	-0.5924	-0.4685	
712896789.000000	10	1.0677	-0.0317	0.0901	-0.0007	-0.0016	-0.0010	0.2037	-0.5903	-0.4339	
712896789.000000	10	1.0677	-0.0316	0.0901	0.0002	-0.0005	0.0006	0.1204	-0.5681	-0.4020	
712896789.000000	10	1.0677	-0.0315	0.0901	0.0004	0.0002	0.0001	0.1019	-0.5134	-0.3810	
712896789.000000	10	1.0678	-0.0316	0.0902	0.0004	-0.0006	-0.0003	0.1222	-0.5820	-0.4436	
712896789.000000	10	1.0675	-0.0313	0.0904	-0.0025	0.0026	0.0033	0.0548	-0.2244	-0.0545	
712896789.000000	10	1.0677	-0.0315	0.0901	0.0001	0.0000	-0.0001	0.1160	-0.5394	-0.4228	
712896789.000000	10	1.0677	-0.0315	0.0901	0.0002	-0.0002	0.0006	0.1300	-0.6147	-0.4884	
712896789.000000	10	1.0677	-0.0316	0.0901	0.0003	-0.0001	-0.0002	0.1050	-0.5463	-0.4169	
712896789.000000	10	1.0677	-0.0315	0.0901	-0.0010	0.0005	-0.0009	0.0621	-0.6096	-0.4458	
712896789.000000	10	1.0677	-0.0316	0.0901	0.0002	-0.0002	0.0007	0.1112	-0.5634	-0.4075	
712896789.000000	10	1.0677	-0.0315	0.0901	0.0007	0.0018	-0.0002	0.1244	-0.5191	-0.4181	
712896789.000000	10	1.0677	-0.0315	0.0901	0.0000	0.0002	-0.0000	0.1249	-0.5459	-0.4193	
712896789.000000	10	1.0677	-0.0316	0.0901	0.0001	-0.0012	0.0004	0.0935	-0.6137	-0.4007	
712896789.000000	10	1.0677	-0.0315	0.0901	-0.0008	0.0005	-0.0011	0.1051	-0.5651	-0.4608	
712896789.000000	10	1.0677	-0.0316	0.0902	0.0027	-0.0030	-0.0025	0.1252	-0.5623	-0.4292	
712897630.000000	10	1.0677	-0.0315	0.0901	-0.0001	-0.0000	0.0001	0.1300	-0.5434	-0.4374	
712897630.000000	10	1.0677	-0.0316	0.0901	-0.0002	-0.0002	-0.0001	0.1264	-0.5588	-0.4187	
712897630.000000	10	1.0677	-0.0316	0.0901	-0.0002	0.0003	0.0005	0.1356	-0.6263	-0.4929	
712897630.000000	10	1.0677	-0.0316	0.0901	0.0002	-0.0017	-0.0004	0.1944	-0.5568	-0.4394	
712897630.000000	10	1.0677	-0.0316	0.0901	0.0001	-0.0002	-0.0004	0.1205	-0.5546	-0.4260	
712897630.000000	10	1.0677	-0.0316	0.0901	0.0001	-0.0003	0.0002	0.1323	-0.5511	-0.4396	
712897630.000000	10	1.0677	-0.0316	0.0901	0.0001	-0.0001	-0.0000	0.1078	-0.5330	-0.4031	
712897630.000000	10	1.0678	-0.0316	0.0902	0.0002	0.0010	0.0003	0.1132	-0.5751	-0.4462	
712897630.000000	10	1.0677	-0.0315	0.0901	0.0002	-0.0004	0.0003	0.1099	-0.5358	-0.4105	
712897630.000000	10	1.0677	-0.0315	0.0901	-0.0001	0.0003	-0.0012	0.0953	-0.4356	-0.4455	
712897630.000000	10	1.0677	-0.0316	0.0901	-0.0001	-0.0003	-0.0001	0.1180	-0.5506	-0.4134	
712897630.000000	10	1.0677	-0.0315	0.0901	0.0004	0.0010	-0.0001	0.0956	-0.4942	-0.4053	
712897630.000000	10	1.0677	-0.0316	0.0901	0.0002	-0.0004	-0.0002	0.1238	-0.5728	-0.4211	
712897630.000000	10	1.0677	-0.0316	0.0902	0.0003	0.0000	0.0017	0.2085	-0.5488	-0.4193	
712897630.000000	10	1.0677	-0.0316	0.0901	-0.0002	0.0001	0.0001	0.1209	-0.5413	-0.4134	
712897630.000000	10	1.0678	-0.0316	0.0902	0.0004	-0.0001	0.0007	0.1261	-0.5733	-0.4468	
712897630.000000	10	1.0677	-0.0315	0.0902	0.0004	0.0002	0.0012	0.0984	-0.5437	-0.4049	
712897630.000000	10	1.0677	-0.0316	0.0901	-0.0007	-0.0001	-0.0010	0.1195	-0.5443	-0.4118	
712897630.000000	10	1.0677	-0.0316	0.0901	-0.0001	-0.0002	-0.0000	0.1126	-0.5435	-0.4166	
712897630.000000	10	1.0677	-0.0315	0.0901	0.0001	0.0001	0.0003	0.0861	-0.3960	-0.4241	
712897630.000000	10	1.0677	-0.0316	0.0900	-0.0000	0.0002	-0.0005	0.1241	-0.5882	-0.4694	
712897630.000000	10	1.0677	-0.0315	0.0901	-0.0003	-0.0003	0.0001	0.0901	-0.5206	-0.3946	
712897630.000000	10	1.0677	-0.0315	0.0902	0.0000	0.0007	0.0007	0.1139	-0.5576	-0.4257	
712897630.000000	10	1.0677	-0.0315	0.0901	0.0000	0.0011	-0.0013	0.1150	-0.5376	-0.4067	
712897630.000000	10	1.0677	-0.0316	0.0900	-0.0002	0.0001	-0.0005	0.1272	-0.6041	-0.4799	
712897630.000000	10	1.0677	-0.0316	0.0901	-0.0005	0.0002	-0.0008	0.1278	-0.5464	-0.4869	
712897630.000000	10	1.0677	-0.0315	0.0902	-0.0005	0.0005	-0.0000	0.1021	-0.6032	-0.4469	
712897630.000000	10	1.0677	-0.0316	0.0901	-0.0000	0.0000	0.0002	0.1239	-0.5479	-0.4189	
712897630.000000	10	1.0677	-0.0315	0.0902	0.0005	0.0004	0.0012	0.0994	-0.5255	-0.3996	
712897630.000000	10	1.0677	-0.0316	0.0901	-0.0000	-0.0007	-0.0001	0.0695	-0.5189	-0.3577	
712897630.000000	10	1.0677	-0.0315	0.0901	-0.0001	0.0003	0.0005	0.1384	-0.5355	-0.4172	
712897630.000000	10	1.0677	-0.0315	0.0901	0.0002	-0.0003	0.0002	0.1140	-0.4917	-0.4388	
712897630.000000	10	1.0677	-0.0315	0.0901	-0.0001	0.0003	-0.0006	0.0893	-0.5176	-0.3928	
712897630.000000	10	1.0678	-0.0316	0.0902	0.0008	-0.0001	0.0008	0.1356	-0.5723	-0.4590	
712897630.000000	10	1.0676	-0.0315	0.0901	-0.0006	0.0005	0.0004	0.0826	-0.6359	-0.4748	
712897630.000000	10	1.0677	-0.0316	0.0900	-0.0004	-0.0002	-0.0005	0.1335	-0.5965	-0.4746	
712897630.000000	10	1.0677	-0.0315	0.0901	-0.0006	-0.0004	-0.0010	0.0754	-0.5809	-0.4161	
712897630.000000	10	1.0677	-0.0315	0.0902	0.0002	0.0008	0.0014	0.0852	-0.5809	-0.4160	
712897630.000000	10	1.0677	-0.0316	0.0900	-0.0002	-0.0006	-0.0019	0.1302	-0.6141	-0.4892	
712897630.000000	10	1.0677	-0.0316	0.0901	0.0003	0.0003	0.0004	0.1266	-0.6265	-0.4935	
712897630.000000	10	1.0677	-0.0316	0.0901	-0.0002	-0.0003	-0.0004	0.1356	-0.5871	-0.4742	
712897630.000000	10	1.0677	-0.0316	0.0900	-0.0005	-0.0005	-0.0010	0.1303	-0.5957	-0.4815	
712897630.000000	10	1.0677	-0.0315	0.0901	0.0002	-0.0004	0.0000	0.1505	-0.6306	-0.4973	
712897630.000000	10	1.0677	-0.0315	0.0901	-0.0014	0.0004	-0.0008	0.0814	-0.6316	-0.4792	
712897630.000000	10	1.0677	-0.0316	0.0902	0.0007	-0.0011	0.0016	0.2061	-0.5238	-0.3757	
712897630.000000	10	1.0677	-0.0316	0.0901	0.0002	0.0002	0.0006	0.1094	-0.5387	-0.4087	
712897630.000000	10	1.0677	-0.0315	0.0902	0.0011	-0.0000	0.0007	0.1150	-0.5669	-0.4204	
712897630.000000	10	1.0677	-0.0316	0.0902	0.0002	-0.0008	-0.0007	0.1260	-0.5791	-0.4339	
712897630.000000	10	1.0677	-0.0315	0.0901	-0.0001	0.0005	0.0006	0.1048	-0.5304	-0.4035	
712897630.000000	10	1.0677	-0.0315	0.0902	-0.0001	0.0003	0.0008	0.1185	-0.5561	-0.4461	
712897630.000000	10	1.0677	-0.0315	0.0901	0.0003	0.0002	0.0008	0.1555	-0.6220	-0.4908	
712897630.000000	10	1.0677	-0.0315	0.0901	0.0002	0.0003	0.0011	0.1318	-0.6185	-0.4863	
712897630.000000	10	1.0677	-0.0315	0.0901	-0.0001	-0.0001	0.0004	0.1187	-0.5953	-0.4584	
712897630.000000	10	1.0677	-0.0315	0.0902	0.0010	-0.0001	0.0009	0.1184	-0.5580	-0.4294	
712897630.000000	10	1.0677	-0.0315	0.0900	-0.0002	0.0011	-0.0020	0.0513	-0.4289	-0.4143	
712897630.000000	10	1.0677	-0.0315	0.0901	0.0003	0.0009	0.0005	0.1186	-0.5543	-0.4287	
712897630.000000	10	1.0677	-0.0316	0.0901	-0.0005	-0.0003	-0.0010	0.1176	-0.5353	-0.4165	
712897630.000000	10	1.0677	-0.0315	0.0902	-0.0000	0.0001	0.0000	0.1218	-0.5595	-0.4302	
712897630.000000	10	1.0675	-0.0312	0.0904	-0.0025	0.0036	0.0042	0.0716	-0.2224	-0.0802	
712897630.000000	10	1.0677	-0.0315	0.0901	-0.0003	-0.0000	-0.0007	0.1388	-0.6293	-0.5070	
712897630.000000	10	1.0677	-0.0315	0.0901	-0.0001	0.0002	-0.0003	0.1495	-0.5320	-0.4326	
712897630.000000	10	1.0677	-0.0316	0.0901	-0.0000	-0.0001	-0.0003	0.1366	-0.6157	-0.4739	
712897630.000000	10	1.0677	-0.0316	0.0901	-0.0004	-0.0003	-0.0007	0.1190	-0.5458	-0.4194	
712897630.000000	10	1.0678	-0.0316	0.0902	0.0002	-0.0002	-0.0001	0.1103	-0.5755	-0.4411	
712897630.000000	10	1.0677	-0.0315	0.0901	0.0004	-0.0001	0.0003	0.1142	-0.4210	-0.4583	
712897630.000000	10	1.0677	-0.0315	0.0901	-0.0003	-0.0008	-0.0005	0.1189	-0.5435	-0.4224	
712897630.000000	10	1.0677	-0.0316	0.0900	-0.0003	-0.0002	-0.0008	0.1083	-0.4267	-0.4315	
712897630.000000	10	1.0677	-0.0315	0.0902	0.0001	0.0001	0.0000	0.1153	-0.5679	-0.4191	
712897630.000000	10	1.0677	-0.0315	0.0901	0.0018	-0.0033	-0.0039	0.0776	-0.5647	-0.4079	
712897630.000000	10	1.0677	-0.0316	0.0901	-0.0001	-0.0003	-0.0004	0.1240	-0.5375	-0.4212	
712897630.000000	10	1.0677	-0.0315	0.0900	-0.0001	-0.0002	-0.0011	0.1068	-0.3973	-0.4453	
712897630.000000	10	1.0677	-0.0315	0.0901	0.0001	0.0001	-0.0002	0.1063	-0.5495	-0.4123	
712897630.000000	10	1.0677	-0.0316	0.0901	0.0004	-0.0001	0.0002	0.0735	-0.6006	-0.4110	
712897630.000000	10	1.0677	-0.0315	0.0901	-0.0004	0.0000	-0.0004	0.1403	-0.6151	-0.4977	
712897630.000000	10	1.0677	-0.0315	0.0902	0.0003	0.0000	0.0012	0.1335	-0.5731	-0.4360	
712897630.000000	10	1.0677	-0.0315	0.0902	0.0004	0.0007	0.0013	0.1188	-0.5316	-0.4134	
712897630.000000	10	1.0677	-0.0316	0.0901	0.0004	0.0002	0.0008	0.1228	-0.5336	-0.4171	
712897630.000000	10	1.0677	-0.0315	0.0902	0.0000	0.0002	-0.0001	0.1298	-0.5515	-0.4345	
712897630.000000	10	1.0677	-0.0315	0.0902	0.0004	0.0001	0.0011	0.0794	-0.5992	-0.4194	
712897630.000000	10	1.0677	-0.0315	0.0900	-0.0002	0.0000	-0.0005	0.1363	-0.6026	-0.4858	
712897630.000000	10	1.0677	-0.0316	0.0901	0.0003	-0.0006	0.0008	0.1208	-0.5543	-0.4354	
712897630.000000	10	1.0677	-0.0315	0.0902	-0.0002	0.0002	0.0014	0.0962	-0.6270	-0.4346	
712897630.000000	10	1.0677	-0.0316	0.0900	-0.0001	0.0000	-0.0008	0.1354	-0.6025	-0.4956	
712897630.000000	10	1.0677	-0.0316	0.0901	-0.0002	-0.0002	-0.0004	0.1143	-0.5447	-0.4108	
712897630.000000	10	1.0677	-0.0315	0.0900	-0.0003	-0.0002	-0.0014	0.1139	-0.4773	-0.4242	
712897630.000000	10	1.0677	-0.0315	0.0902	-0.0002	-0.0006	-0.0005	0.1251	-0.5737	-0.4360	
712897630.000000	10	1.0677	-0.0316	0.0901	0.0003	-0.0002	-0.0002	0.1151	-0.5561	-0.4329	
712897630.000000	10	1.0677	-0.0315	0.0902	0.0000	-0.0003	0.0001	0.1218	-0.5537	-0.4358	
712897630.000000	10	1.0677	-0.0316	0.0900	-0.0002	-0.0007	-0.0025	0.1232	-0.5261	-0.4750	
712897630.000000	10	1.0677	-0.0316	0.0902	0.0006	-0.0000	0.0018	0.1270	-0.5799	-0.4344	
712897630.000000	10	1.0677	-0.0316	0.0901	0.0001	0.0003	0.0002	0.1197	-0.5126	-0.4010	
712897630.000000	10	1.0677	-0.0316	0.0901	0.0003	-0.0002	-0.0015	0.1326	-0.5571	-0.4264	
712897630.000000	10	1.0677	-0.0315	0.0902	0.0001	0.0004	0.0016	0.1140	-0.5645	-0.4330	
712897630.000000	10	1.0677	-0.0315	0.0901	0.0002	0.0002	0.0000	0.1110	-0.5388	-0.4138	
712897630.000000	10	1.0677	-0.0315	0.0902	0.0004	0.0001	0.0015	0.1117	-0.5571	-0.4159	
712897630.000000	10	1.0677	-0.0315	0.0902	0.0002	0.0000	0.0002	0.1140	-0.5306	-0.4008	
712897630.000000	10	1.0677	-0.0316	0.0901	-0.0001	0.0000	0.0009	0.1419	-0.6387	-0.4879	
712897630.000000	10	1.0677	-0.0315	0.0901	-0.0006	0.0004	-0.0006	0.0905	-0.6590	-0.4831	
712897630.000000	10	1.0677	-0.0315	0.0901	0.0005	0.0002	0.0012	0.1130	-0.5328	-0.4154	
712897630.000000	10	1.0677	-0.0315	0.0902	0.0001	0.0004	-0.0003	0.1219	-0.5622	-0.4357	
712897630.000000	10	1.0677	-0.0315	0.0901	-0.0000	0.0002	-0.0000	0.1135	-0.5339	-0.4157	
712898474.000000	10	1.0678	-0.0316	0.0901	0.0004	-0.0001	0.0002	0.1236	-0.6287	-0.4931	
712898474.000000	10	1.0677	-0.0316	0.0901	0.0001	-0.0004	-0.0011	0.1099	-0.5394	-0.4263	
712898474.000000	10	1.0677	-0.0316	0.0901	-0.0001	-0.0001	-0.0002	0.1142	-0.5331	-0.4070	
712898474.000000	10	1.0677	-0.0316	0.0901	-0.0000	-0.0004	-0.0003	0.0820	-0.5760	-0.3928	
712898474.000000	10	1.0677	-0.0316	0.0900	-0.0006	-0.0002	-0.0016	0.1286	-0.5878	-0.4834	
712898474.000000	10	1.0677	-0.0316	0.0902	0.0001	0.0001	0.0002	0.1288	-0.5636	-0.4264	
712898474.000000	10	1.0677	-0.0315	0.0901	0.0002	-0.0004	-0.0004	0.1108	-0.5483	-0.4146	
712898474.000000	10	1.0677	-0.0316	0.0901	-0.0002	-0.0001	-0.0000	0.1124	-0.5436	-0.4147	
712898474.000000	10	1.0678	-0.0315	0.0902	0.0003	-0.0003	0.0001	0.0999	-0.5490	-0.4108	
712898474.000000	10	1.0677	-0.0315	0.0901	0.0002	0.0003	0.0002	0.1157	-0.4770	-0.4456	
712898474.000000	10	1.0677	-0.0316	0.0900	-0.0005	-0.0003	-0.0008	0.1277	-0.6052	-0.4833	
712898474.000000	10	1.0678	-0.0316	0.0902	0.0003	0.0002	0.0012	0.1073	-0.5531	-0.4110	
712898474.000000	10	1.0678	-0.0316	0.0902	0.0004	0.0000	0.0010	0.1340	-0.5734	-0.4496	
712898474.000000	10	1.0678	-0.0315	0.0901	0.0005	0.0005	-0.0001	0.1236	-0.5617	-0.4429	
712898474.000000	10	1.0677	-0.0315	0.0901	0.0007	0.0001	0.0012	0.1413	-0.5798	-0.4407	
712898474.000000	10	1.0677	-0.0315	0.0902	0.0002	0.0004	0.0003	0.1149	-0.5270	-0.3934	
712898474.000000	10	1.0678	-0.0316	0.0902	0.0007	-0.0002	0.0011	0.1309	-0.5839	-0.4457	
712898474.000000	10	1.0677	-0.0315	0.0901	0.0002	0.0002	0.0001	0.1126	-0.5343	-0.4078	
712898474.000000	10	1.0677	-0.0316	0.0902	-0.0012	-0.0011	-0.0000	0.1601	-0.5268	-0.4316	
712898474.000000	10	1.0677	-0.0316	0.0902	-0.0002	-0.0006	0.0009	0.1344	-0.5720	-0.4263	
712898474.000000	10	1.0678	-0.0315	0.0902	0.0005	0.0011	0.0019	0.1080	-0.5358	-0.4071	
712898474.000000	10	1.0677	-0.0315	0.0902	-0.0002	0.0001	-0.0002	0.1482	-0.5708	-0.4500	
712898474.000000	10	1.0677	-0.0315	0.0901	-0.0004	0.0005	-0.0007	0.1000	-0.5096	-0.3927	
712898474.000000	10	1.0677	-0.0316	0.0902	-0.0004	-0.0003	0.0007	0.1182	-0.5449	-0.3959	
712898474.000000	10	1.0677	-0.0315	0.0902	-0.0001	0.0001	0.0003	0.1189	-0.5603	-0.4336	
712898474.000000	10	1.0677	-0.0315	0.0901	-0.0009	0.0003	-0.0007	0.0533	-0.5555	-0.3895	
712898474.000000	10	1.0678	-0.0315	0.0902	0.0002	0.0006	-0.0003	0.0884	-0.5641	-0.4325	
712898474.000000	10	1.0677	-0.0316	0.0902	0.0001	-0.0012	0.0010	0.1876	-0.5449	-0.3944	
712898474.000000	10	1.0677	-0.0315	0.0902	0.0008	0.0012	-0.0001	0.1259	-0.5632	-0.4350	
712898474.000000	10	1.0677	-0.0315	0.0901	0.0002	0.0005	-0.0009	0.0941	-0.5186	-0.4136	
712898474.000000	10	1.0677	-0.0316	0.0902	-0.0001	-0.0013	-0.0003	0.1252	-0.6007	-0.4408	
712898474.000000	10	1.0677	-0.0315	0.0901	-0.0011	0.0003	-0.0010	0.1001	-0.6355	-0.4802	
712898474.000000	10	1.0677	-0.0316	0.0901	-0.0002	-0.0009	-0.0001	0.1175	-0.5697	-0.4140	
712898474.000000	10	1.0677	-0.0315	0.0902	-0.0000	0.0003	-0.0003	0.1249	-0.5604	-0.4354	
712898474.000000	10	1.0678	-0.0316	0.0902	0.0002	-0.0003	-0.0001	0.1220	-0.5747	-0.4409	
712898474.000000	10	1.0678	-0.0315	0.0901	0.0010	-0.0004	-0.0007	0.1169	-0.5308	-0.4352	
712898474.000000	10	1.0680	-0.0315	0.0902	0.0025	0.0002	0.0009	-0.0827	-0.4660	-0.2741	
712898474.000000	10	1.0677	-0.0316	0.0901	0.0001	0.0009	-0.0013	0.1138	-0.5519	-0.4277	
712898474.000000	10	1.0677	-0.0315	0.0902	-0.0002	0.0000	-0.0001	0.1177	-0.5628	-0.4288	
712898474.000000	10	1.0677	-0.0315	0.0902	0.0000	-0.0002	0.0008	0.1223	-0.5646	-0.4288	
712898474.000000	10	1.0677	-0.0315	0.0901	-0.0004	0.0006	-0.0010	0.1150	-0.5285	-0.4203	
712898474.000000	10	1.0676	-0.0315	0.0903	-0.0002	0.0003	0.0022	0.0087	-0.6618	-0.4114	
712898474.000000	10	1.0678	-0.0316	0.0902	0.0007	0.0001	0.0009	0.1179	-0.5914	-0.4376	
712898474.000000	10	1.0677	-0.0315	0.0902	0.0000	-0.0000	-0.0000	0.1205	-0.5636	-0.4289	
712898474.000000	10	1.0677	-0.0316	0.0901	-0.0005	0.0000	-0.0009	0.1221	-0.5451	-0.4194	
712898474.000000	10	1.0677	-0.0316	0.0901	-0.0005	-0.0002	0.0002	0.1162	-0.5406	-0.4195	
712898474.000000	10	1.0677	-0.0316	0.0901	-0.0029	-0.0009	-0.0019	0.1072	-0.5832	-0.4513	
712898474.000000	10	1.0677	-0.0317	0.0901	-0.0006	-0.0011	0.0009	0.2056	-0.5868	-0.4535	
712898474.000000	10	1.0678	-0.0316	0.0901	0.0004	-0.0002	-0.0007	0.1230	-0.6344	-0.4858	
712898474.000000	10	1.0677	-0.0316	0.0900	-0.0003	-0.0007	-0.0015	0.0838	-0.5599	-0.3713	
712898474.000000	10	1.0678	-0.0316	0.0902	0.0006	-0.0001	0.0009	0.1271	-0.5753	-0.4474	
712898474.000000	10	1.0678	-0.0316	0.0902	0.0016	-0.0007	-0.0012	0.1141	-0.5696	-0.4425	
712898474.000000	10	1.0677	-0.0316	0.0901	-0.0004	0.0002	-0.0014	0.1121	-0.5779	-0.4517	
712898474.000000	10	1.0677	-0.0315	0.0901	-0.0004	-0.0000	-0.0008	0.1213	-0.5306	-0.4306	
712898474.000000	10	1.0678	-0.0316	0.0902	0.0006	-0.0003	0.0009	0.1170	-0.5891	-0.4374	
712898474.000000	10	1.0677	-0.0315	0.0901	0.0004	0.0000	0.0005	0.1424	-0.6193	-0.5152	
712898474.000000	10	1.0677	-0.0316	0.0902	-0.0003	-0.0005	0.0017	0.1635	-0.5156	-0.3727	
712898474.000000	10	1.0677	-0.0315	0.0901	0.0006	0.0016	-0.0001	0.1421	-0.6212	-0.5021	
712898474.000000	10	1.0677	-0.0315	0.0901	-0.0012	0.0004	0.0001	0.0821	-0.5894	-0.4235	
712898474.000000	10	1.0677	-0.0316	0.0901	0.0003	0.0005	0.0004	0.1116	-0.5473	-0.4287	
712898474.000000	10	1.0677	-0.0316	0.0902	-0.0002	0.0001	0.0004	0.1299	-0.5708	-0.4312	
712898474.000000	10	1.0677	-0.0316	0.0902	-0.0006	-0.0009	0.0006	0.1779	-0.5022	-0.3740	
712898474.000000	10	1.0677	-0.0315	0.0901	-0.0000	0.0007	0.0010	0.1116	-0.5842	-0.4608	
712898474.000000	10	1.0677	-0.0315	0.0901	0.0001	0.0002	-0.0004	0.1168	-0.5150	-0.4103	
712898474.000000	10	1.0675	-0.0313	0.0904	-0.0030	0.0034	0.0024	0.0549	-0.2121	-0.0604	
712898474.000000	10	1.0677	-0.0315	0.0901	-0.0010	0.0002	-0.0002	0.0779	-0.5718	-0.4094	
712898474.000000	10	1.0677	-0.0315	0.0901	-0.0003	0.0011	-0.0017	0.0999	-0.5652	-0.4568	
712898474.000000	10	1.0677	-0.0316	0.0901	0.0002	-0.0005	-0.0006	0.1123	-0.5536	-0.4185	
712898474.000000	10	1.0677	-0.0315	0.0902	0.0009	-0.0001	0.0006	0.1300	-0.5737	-0.4362	
712898474.000000	10	1.0677	-0.0315	0.0902	0.0000	0.0005	0.0013	0.1230	-0.5561	-0.4360	
712898474.000000	10	1.0677	-0.0316	0.0901	-0.0006	-0.0002	-0.0013	0.1191	-0.5338	-0.4123	
712898474.000000	10	1.0677	-0.0316	0.0900	-0.0006	0.0001	-0.0029	0.0720	-0.4429	-0.3841	
712898474.000000	10	1.0677	-0.0315	0.0902	-0.0001	-0.0000	0.0010	0.0628	-0.5751	-0.3977	
712898474.000000	10	1.0677	-0.0315	0.0902	0.0002	-0.0003	0.0014	0.1171	-0.5592	-0.4228	
712898474.000000	10	1.0677	-0.0316	0.0901	0.0026	-0.0031	-0.0033	0.1139	-0.5461	-0.4186	
712898474.000000	10	1.0677	-0.0315	0.0902	0.0007	-0.0001	0.0008	0.1202	-0.5516	-0.4299	
712898474.000000	10	1.0677	-0.0315	0.0902	0.0006	-0.0002	0.0013	0.1344	-0.5630	-0.4327	
712898474.000000	10	1.0677	-0.0315	0.0902	-0.0001	0.0003	0.0011	0.1147	-0.5631	-0.4220	
712898474.000000	10	1.0678	-0.0315	0.0902	0.0004	0.0000	0.0001	0.1097	-0.5412	-0.4129	
712898474.000000	10	1.0677	-0.0315	0.0901	-0.0003	-0.0003	-0.0009	0.1063	-0.5147	-0.3883	
712898474.000000	10	1.0677	-0.0315	0.0901	-0.0006	0.0005	-0.0001	0.0928	-0.6371	-0.4812	
712898474.000000	10	1.0678	-0.0316	0.0902	0.0011	0.0005	0.0028	0.1359	-0.5192	-0.4010	
712898474.000000	10	1.0677	-0.0315	0.0902	-0.0000	0.0002	-0.0008	0.0534	-0.5332	-0.3803	
712898474.000000	10	1.0677	-0.0316	0.0901	-0.0000	-0.0003	-0.0011	0.1102	-0.5490	-0.4341	
712898474.000000	10	1.0677	-0.0315	0.0901	0.0001	0.0002	0.0002	0.1143	-0.5200	-0.3970	
712898474.000000	10	1.0677	-0.0315	0.0902	0.0001	-0.0001	0.0000	0.1208	-0.5657	-0.4259	
712898474.000000	10	1.0675	-0.0313	0.0904	-0.0034	0.0033	0.0025	0.0090	-0.2411	-0.0534	
712898474.000000	10	1.0677	-0.0315	0.0901	-0.0002	-0.0001	-0.0011	0.1114	-0.5376	-0.4172	
712898474.000000	10	1.0677	-0.0316	0.0901	-0.0009	-0.0002	-0.0011	0.1154	-0.5502	-0.4128	
712898474.000000	10	1.0677	-0.0315	0.0902	0.0002	0.0004	0.0009	0.1228	-0.5574	-0.4380	
712898474.000000	10	1.0677	-0.0315	0.0901	0.0007	-0.0003	0.0001	0.1164	-0.5341	-0.4051	
712898474.000000	10	1.0678	-0.0316	0.0902	-0.0000	0.0003	-0.0002	0.1026	-0.5658	-0.4103	
712898474.000000	10	1.0677	-0.0316	0.0901	0.0003	-0.0009	-0.0004	0.1325	-0.6203	-0.5166	
712898474.000000	10	1.0676	-0.0315	0.0901	-0.0011	0.0004	0.0004	0.0877	-0.5855	-0.4166	
712898474.000000	10	1.0677	-0.0316	0.0901	0.0002	-0.0003	-0.0003	0.1065	-0.5266	-0.3984	
712898474.000000	10	1.0677	-0.0316	0.0900	-0.0003	-0.0001	-0.0018	0.1260	-0.4807	-0.4369	
712898474.000000	10	1.0677	-0.0316	0.0901	0.0035	-0.0036	-0.0028	0.1305	-0.5976	-0.4806	
712898474.000000	10	1.0677	-0.0316	0.0902	-0.0001	-0.0009	0.0011	0.2049	-0.5255	-0.4098	
712898474.000000	10	1.0677	-0.0315	0.0901	0.0005	0.0003	0.0007	0.1253	-0.5417	-0.4265	
712898474.000000	10	1.0677	-0.0315	0.0902	-0.0001	-0.0003	-0.0003	0.1207	-0.5615	-0.4297	
712898474.000000	10	1.0678	-0.0316	0.0902	0.0005	-0.0002	0.0008	0.1202	-0.5727	-0.4369	
712899313.000000	10	1.0677	-0.0315	0.0902	-0.0008	0.0010	0.0002	0.0609	-0.5771	-0.4030	
712899313.000000	10	1.0677	-0.0315	0.0902	-0.0003	0.0001	0.0006	0.1210	-0.5658	-0.4367	
712899313.000000	10	1.0677	-0.0316	0.0901	0.0007	-0.0003	-0.0003	0.1155	-0.5402	-0.4164	
712899313.000000	10	1.0678	-0.0316	0.0902	0.0001	-0.0001	0.0008	0.1255	-0.5713	-0.4390	
712899313.000000	10	1.0676	-0.0315	0.0901	-0.0007	0.0003	0.0012	0.0836	-0.5815	-0.4248	
712899313.000000	10	1.0675	-0.0313	0.0904	-0.0028	0.0034	0.0028	0.0956	-0.2552	-0.1154	
712899313.000000	10	1.0677	-0.0315	0.0902	0.0005	0.0010	0.0001	0.1344	-0.5694	-0.4387	
712899313.000000	10	1.0677	-0.0315	0.0901	-0.0004	0.0001	-0.0006	0.0964	-0.5245	-0.3797	
712899313.000000	10	1.0677	-0.0316	0.0901	-0.0006	-0.0002	-0.0008	0.0804	-0.5982	-0.4316	
712899313.000000	10	1.0677	-0.0315	0.0902	-0.0003	0.0002	0.0002	0.1245	-0.5670	-0.4269	
712899313.000000	10	1.0677	-0.0316	0.0902	0.0007	-0.0013	-0.0007	0.1185	-0.6217	-0.4660	
712899313.000000	10	1.0677	-0.0315	0.0901	0.0001	0.0002	-0.0005	0.1224	-0.5964	-0.4662	
712899313.000000	10	1.0677	-0.0315	0.0902	0.0000	0.0006	0.0014	0.0641	-0.5645	-0.3930	
712899313.000000	10	1.0677	-0.0316	0.0902	-0.0004	0.0001	0.0001	0.1190	-0.5693	-0.4235	
712899313.000000	10	1.0677	-0.0316	0.0901	0.0010	-0.0003	-0.0002	0.1146	-0.5196	-0.4072	
712899313.000000	10	1.0677	-0.0316	0.0900	0.0019	-0.0036	-0.0040	0.1342	-0.5911	-0.4697	
712899313.000000	10	1.0677	-0.0316	0.0901	-0.0004	-0.0001	-0.0012	0.1130	-0.5490	-0.4150	
712899313.000000	10	1.0677	-0.0316	0.0900	0.0001	-0.0008	-0.0007	0.1189	-0.6060	-0.4830	
712899313.000000	10	1.0677	-0.0315	0.0901	0.0004	0.0004	0.0003	0.1047	-0.5135	-0.3963	
712899313.000000	10	1.0677	-0.0316	0.0901	-0.0002	-0.0000	-0.0009	0.1156	-0.5347	-0.4289	
712899313.000000	10	1.0677	-0.0315	0.0901	-0.0007	0.0008	-0.0012	0.0972	-0.4576	-0.4015	
712899313.000000	10	1.0677	-0.0316	0.0901	-0.0001	-0.0005	-0.0006	0.1204	-0.5503	-0.4333	
712899313.000000	10	1.0677	-0.0316	0.0901	0.0002	-0.0006	-0.0013	0.1092	-0.4868	-0.4383	
712899313.000000	10	1.0677	-0.0317	0.0901	-0.0002	-0.0015	-0.0008	0.1826	-0.5294	-0.4000	
712899313.000000	10	1.0677	-0.0315	0.0902	-0.0005	0.0005	0.0011	0.0906	-0.5963	-0.4286	
712899313.000000	10	1.0677	-0.0316	0.0901	0.0004	0.0002	0.0009	0.1340	-0.6202	-0.4932	
712899313.000000	10	1.0677	-0.0316	0.0900	-0.0002	0.0000	-0.0006	0.1189	-0.5906	-0.4678	
712899313.000000	10	1.0677	-0.0315	0.0901	-0.0002	0.0008	0.0009	0.0577	-0.5665	-0.4067	
712899313.000000	10	1.0675	-0.0313	0.0904	-0.0026	0.0028	0.0028	0.0613	-0.2050	-0.0521	
712899313.000000	10	1.0678	-0.0316	0.0902	0.0006	-0.0002	0.0012	0.1335	-0.5892	-0.4484	
712899313.000000	10	1.0677	-0.0315	0.0902	0.0007	0.0000	0.0015	0.1253	-0.5573	-0.4356	
712899313.000000	10	1.0677	-0.0316	0.0902	0.0002	0.0003	0.0009	0.1213	-0.5665	-0.4247	
712899313.000000	10	1.0678	-0.0315	0.0901	0.0005	0.0003	0.0005	0.1048	-0.5767	-0.4480	
712899313.000000	10	1.0677	-0.0316	0.0901	0.0005	0.0014	0.0003	0.1366	-0.6340	-0.5079	
712899313.000000	10	1.0677	-0.0316	0.0901	0.0005	-0.0007	-0.0014	0.1114	-0.5455	-0.4274	
712899313.000000	10	1.0678	-0.0315	0.0902	0.0005	0.0006	0.0006	0.1095	-0.5199	-0.4043	
712899313.000000	10	1.0677	-0.0316	0.0901	0.0001	-0.0002	0.0006	0.1213	-0.5587	-0.4166	
712899313.000000	10	1.0677	-0.0315	0.0902	0.0005	-0.0003	0.0005	0.1199	-0.5595	-0.4344	
712899313.000000	10	1.0677	-0.0316	0.0901	0.0023	-0.0032	-0.0032	0.1186	-0.5454	-0.4125	
712899313.000000	10	1.0677	-0.0316	0.0900	-0.0008	-0.0001	-0.0019	0.1292	-0.5958	-0.4816	
712899313.000000	10	1.0677	-0.0315	0.0901	-0.0005	-0.0000	-0.0009	0.1322	-0.5415	-0.4115	
712899313.000000	10	1.0677	-0.0316	0.0902	-0.0000	-0.0002	0.0000	0.1341	-0.5837	-0.4253	
712899313.000000	10	1.0678	-0.0315	0.0901	0.0002	0.0004	-0.0002	0.1268	-0.5644	-0.4474	
712899313.000000	10	1.0677	-0.0316	0.0901	-0.0005	0.0001	-0.0004	0.1187	-0.5416	-0.4080	
712899313.000000	10	1.0677	-0.0315	0.0902	0.0001	0.0003	0.0014	0.1106	-0.5655	-0.4047	
712899313.000000	10	1.0677	-0.0315	0.0901	-0.0007	0.0001	-0.0006	0.1231	-0.5213	-0.4081	
712899313.000000	10	1.0677	-0.0315	0.0901	-0.0002	0.0004	-0.0001	0.1415	-0.5375	-0.4192	
712899313.000000	10	1.0677	-0.0316	0.0901	-0.0008	-0.0002	-0.0006	0.0842	-0.5886	-0.4279	
712899313.000000	10	1.0677	-0.0316	0.0902	0.0004	0.0001	0.0010	0.1189	-0.5602	-0.4283	
712899313.000000	10	1.0677	-0.0316	0.0901	0.0002	-0.0000	0.0008	0.1277	-0.5685	-0.4256	
712899313.000000	10	1.0677	-0.0316	0.0901	0.0003	-0.0004	0.0003	0.1197	-0.5369	-0.3985	
712899313.000000	10	1.0677	-0.0316	0.0902	-0.0000	0.0003	0.0002	0.1079	-0.5431	-0.3955	
712899313.000000	10	1.0677	-0.0315	0.0901	-0.0009	-0.0001	-0.0003	0.0960	-0.5209	-0.3868	
712899313.000000	10	1.0677	-0.0315	0.0901	0.0001	0.0003	0.0004	0.1439	-0.6207	-0.4992	
712899313.000000	10	1.0677	-0.0316	0.0902	-0.0002	-0.0002	-0.0005	0.1225	-0.5559	-0.4274	
712899313.000000	10	1.0677	-0.0316	0.0901	0.0005	-0.0007	0.0000	0.1440	-0.6203	-0.4853	
712899313.000000	10	1.0677	-0.0316	0.0901	0.0006	-0.0004	-0.0001	0.1124	-0.5564	-0.4332	
712899313.000000	10	1.0677	-0.0316	0.0901	0.0007	-0.0001	-0.0002	0.1072	-0.5536	-0.4272	
712899313.000000	10	1.0678	-0.0315	0.0902	0.0004	0.0002	0.0002	0.1047	-0.5409	-0.4051	
712899313.000000	10	1.0677	-0.0316	0.0901	0.0003	-0.0004	0.0004	0.0892	-0.5865	-0.3916	
712899313.000000	10	1.0677	-0.0316	0.0901	0.0000	-0.0003	-0.0005	0.1113	-0.5452	-0.4242	
712899313.000000	10	1.0677	-0.0317	0.0902	-0.0003	-0.0017	-0.0003	0.1554	-0.5430	-0.3624	
712899313.000000	10	1.0677	-0.0315	0.0901	-0.0004	-0.0002	0.0004	0.0862	-0.6685	-0.4805	
712899313.000000	10	1.0677	-0.0315	0.0902	0.0002	-0.0001	0.0007	0.1191	-0.5597	-0.4251	
712899313.000000	10	1.0677	-0.0316	0.0901	-0.0001	-0.0001	-0.0009	0.1190	-0.5410	-0.4219	
712899313.000000	10	1.0677	-0.0316	0.0901	0.0000	-0.0002	-0.0006	0.1218	-0.5534	-0.4254	
712899313.000000	10	1.0677	-0.0316	0.0901	-0.0004	0.0002	0.0002	0.1232	-0.5402	-0.4142	
712899313.000000	10	1.0677	-0.0316	0.0901	-0.0001	-0.0001	-0.0001	0.1235	-0.5574	-0.4269	
712899313.000000	10	1.0677	-0.0316	0.0901	-0.0002	-0.0011	-0.0007	0.0922	-0.5930	-0.4029	
712899313.000000	10	1.0678	-0.0315	0.0901	0.0003	0.0008	-0.0002	0.1312	-0.5677	-0.4384	
712899313.000000	10	1.0677	-0.0315	0.0900	-0.0005	0.0005	-0.0010	0.1371	-0.5807	-0.4634	
712899313.000000	10	1.0677	-0.0315	0.0902	0.0004	0.0019	0.0001	0.1222	-0.5526	-0.4263	
712899313.000000	10	1.0677	-0.0316	0.0901	0.0007	-0.0007	-0.0008	0.1160	-0.5489	-0.4254	
712899313.000000	10	1.0678	-0.0316	0.0902	0.0002	-0.0002	0.0004	0.1208	-0.5601	-0.4092	
712899313.000000	10	1.0677	-0.0315	0.0902	0.0002	0.0004	0.0010	0.1180	-0.5677	-0.4368	
712899313.000000	10	1.0677	-0.0316	0.0900	-0.0005	0.0001	-0.0004	0.1250	-0.5930	-0.4731	
712899313.000000	10	1.0677	-0.0315	0.0900	-0.0001	0.0001	-0.0008	0.1338	-0.5697	-0.4712	
712899313.000000	10	1.0677	-0.0315	0.0902	-0.0005	0.0009	0.0015	0.0869	-0.5965	-0.4255	
712899313.000000	10	1.0677	-0.0316	0.0901	-0.0004	0.0008	-0.0006	0.1030	-0.5398	-0.4012	
712899313.000000	10	1.0677	-0.0316	0.0901	-0.0005	-0.0004	-0.0005	0.1176	-0.5312	-0.4123	
712899313.000000	10	1.0677	-0.0315	0.0900	-0.0000	0.0001	-0.0000	0.1247	-0.5781	-0.4617	
712899313.000000	10	1.0677	-0.0315	0.0901	-0.0008	0.0003	-0.0002	0.1000	-0.6619	-0.4917	
712899313.000000	10	1.0677	-0.0316	0.0901	-0.0003	0.0003	0.0005	0.1308	-0.6219	-0.4839	
712899313.000000	10	1.0677	-0.0316	0.0901	-0.0004	-0.0001	-0.0011	0.1363	-0.6137	-0.4911	
712899313.000000	10	1.0677	-0.0315	0.0901	-0.0003	-0.0001	-0.0010	0.1185	-0.5372	-0.4120	
712899313.000000	10	1.0677	-0.0315	0.0902	0.0005	0.0003	0.0016	0.1261	-0.5609	-0.4362	
712899313.000000	10	1.0677	-0.0315	0.0900	-0.0001	0.0004	-0.0006	0.1315	-0.5566	-0.4676	
712899313.000000	10	1.0677	-0.0315	0.0901	0.0006	-0.0003	-0.0010	0.1038	-0.5172	-0.3877	
712899313.000000	10	1.0677	-0.0315	0.0901	0.0002	0.0002	0.0004	0.1063	-0.5105	-0.3919	
712899313.000000	10	1.0677	-0.0316	0.0901	-0.0003	-0.0006	0.0009	0.1847	-0.5785	-0.4332	
712899313.000000	10	1.0677	-0.0315	0.0902	0.0005	-0.0001	0.0020	0.1174	-0.5670	-0.4252	
712899313.000000	10	1.0677	-0.0316	0.0902	0.0006	-0.0004	0.0002	0.1251	-0.5578	-0.4315	
712899313.000000	10	1.0677	-0.0316	0.0901	0.0000	-0.0003	-0.0002	0.1179	-0.5608	-0.4091	
712899313.000000	10	1.0677	-0.0315	0.0902	-0.0002	0.0005	0.0009	0.0829	-0.5898	-0.4134	
712899313.000000	10	1.0677	-0.0316	0.0901	0.0003	-0.0003	0.0004	0.1322	-0.6234	-0.5099	
712899313.000000	10	1.0677	-0.0315	0.0901	0.0000	0.0005	-0.0003	0.1098	-0.5886	-0.4676	
712899313.000000	10	1.0677	-0.0316	0.0901	0.0001	-0.0006	0.0014	0.1103	-0.5480	-0.4189	
712899313.000000	10	1.0677	-0.0316	0.0901	-0.0004	-0.0004	-0.0003	0.1228	-0.5454	-0.4112	
712899313.000000	10	1.0676	-0.0315	0.0901	-0.0010	0.0003	-0.0006	0.0838	-0.6375	-0.4642	
712899313.000000	10	1.0677	-0.0315	0.0901	-0.0004	0.0010	-0.0004	0.0895	-0.5712	-0.4135	
712899313.000000	10	1.0677	-0.0316	0.0900	-0.0005	-0.0003	-0.0015	0.1331	-0.6013	-0.4736	
712900154.000000	10	1.0678	-0.0316	0.0901	0.0004	-0.0009	-0.0004	0.0889	-0.5881	-0.3912	
712900154.000000	10	1.0677	-0.0315	0.0902	0.0002	0.0005	0.0007	0.1205	-0.5561	-0.4331	
712900154.000000	10	1.0677	-0.0316	0.0901	0.0003	-0.0004	-0.0008	0.1348	-0.6203	-0.4799	
712900154.000000	10	1.0677	-0.0316	0.0902	-0.0002	-0.0009	0.0011	0.1897	-0.5064	-0.3750	
712900154.000000	10	1.0678	-0.0316	0.0902	0.0002	-0.0009	0.0001	0.1242	-0.5698	-0.4305	
712900154.000000	10	1.0677	-0.0315	0.0901	-0.0004	0.0004	0.0003	0.0777	-0.5767	-0.4101	
712900154.000000	10	1.0677	-0.0315	0.0901	0.0004	0.0003	0.0002	0.0907	-0.5301	-0.4035	
712900154.000000	10	1.0677	-0.0316	0.0901	0.0010	-0.0007	0.0002	0.1184	-0.5506	-0.4281	
712900154.000000	10	1.0677	-0.0316	0.0902	0.0009	-0.0002	0.0006	0.1232	-0.5629	-0.4380	
712900154.000000	10	1.0677	-0.0316	0.0901	0.0002	0.0001	0.0006	0.1228	-0.5428	-0.4127	
712900154.000000	10	1.0677	-0.0316	0.0901	-0.0008	0.0009	-0.0004	0.1276	-0.5359	-0.4295	
712900154.000000	10	1.0677	-0.0315	0.0901	0.0000	-0.0001	-0.0005	0.1237	-0.6131	-0.4791	
712900154.000000	10	1.0677	-0.0316	0.0902	0.0001	-0.0001	0.0006	0.1273	-0.5615	-0.4278	
712900154.000000	10	1.0677	-0.0315	0.0901	-0.0007	0.0015	-0.0011	0.0729	-0.5908	-0.4120	
712900154.000000	10	1.0677	-0.0315	0.0901	-0.0012	0.0005	-0.0005	0.0868	-0.5797	-0.4154	
712900154.000000	10	1.0677	-0.0315	0.0902	0.0007	-0.0002	0.0007	0.1145	-0.5630	-0.4277	
712900154.000000	10	1.0677	-0.0315	0.0902	-0.0001	-0.0001	0.0006	0.1176	-0.5623	-0.4203	
712900154.000000	10	1.0677	-0.0316	0.0901	-0.0002	0.0003	0.0001	0.1115	-0.5331	-0.4117	
712900154.000000	10	1.0677	-0.0316	0.0900	-0.0006	-0.0002	-0.0015	0.1306	-0.6068	-0.4837	
712900154.000000	10	1.0677	-0.0315	0.0901	0.0002	0.0001	0.0003	0.1293	-0.6140	-0.4942	
712900154.000000	10	1.0677	-0.0315	0.0901	-0.0003	0.0004	0.0007	0.0725	-0.5615	-0.3957	
712900154.000000	10	1.0677	-0.0316	0.0901	-0.0003	-0.0002	-0.0004	0.1219	-0.5393	-0.4195	
712900154.000000	10	1.0677	-0.0315	0.0902	-0.0004	0.0007	0.0005	0.0735	-0.5733	-0.4003	
712900154.000000	10	1.0677	-0.0317	0.0901	0.0004	-0.0017	0.0003	0.1995	-0.6116	-0.4614	
712900154.000000	10	1.0677	-0.0315	0.0902	0.0010	-0.0001	0.0006	0.1196	-0.5602	-0.4299	
712900154.000000	10	1.0677	-0.0315	0.0901	-0.0002	-0.0001	-0.0010	0.1156	-0.5425	-0.4096	
712900154.000000	10	1.0677	-0.0316	0.0902	-0.0001	-0.0001	0.0001	0.1205	-0.5656	-0.4317	
712900154.000000	10	1.0677	-0.0315	0.0902	0.0003	0.0007	0.0011	0.0974	-0.5372	-0.4003	
712900154.000000	10	1.0677	-0.0315	0.0902	0.0007	0.0004	0.0015	0.1200	-0.5539	-0.4252	
712900154.000000	10	1.0677	-0.0315	0.0901	0.0000	-0.0001	-0.0004	0.1172	-0.5368	-0.4184	
712900154.000000	10	1.0677	-0.0315	0.0901	-0.0001	-0.0002	-0.0003	0.0765	-0.5772	-0.4265	
712900154.000000	10	1.0677	-0.0316	0.0902	0.0003	0.0001	0.0012	0.1353	-0.5763	-0.4420	
712900154.000000	10	1.0677	-0.0315	0.0901	-0.0004	-0.0002	-0.0014	0.0681	-0.4622	-0.4395	
712900154.000000	10	1.0677	-0.0316	0.0901	0.0000	0.0010	-0.0004	0.1154	-0.5698	-0.4145	
712900154.000000	10	1.0677	-0.0315	0.0902	0.0000	0.0001	0.0003	0.1303	-0.5560	-0.4446	
712900154.000000	10	1.0677	-0.0315	0.0901	-0.0002	0.0004	-0.0003	0.1000	-0.5693	-0.4393	
712900154.000000	10	1.0677	-0.0316	0.0901	0.0000	-0.0000	-0.0008	0.1013	-0.5172	-0.3903	
712900154.000000	10	1.0677	-0.0315	0.0902	-0.0002	-0.0004	-0.0003	0.1485	-0.5574	-0.4262	
712900154.000000	10	1.0676	-0.0315	0.0901	-0.0011	0.0001	-0.0006	0.0887	-0.5804	-0.4198	
712900154.000000	10	1.0677	-0.0316	0.0901	-0.0003	-0.0005	0.0002	0.1259	-0.5564	-0.4145	
712900154.000000	10	1.0677	-0.0315	0.0902	0.0007	0.0003	0.0005	0.1131	-0.5995	-0.4578	
712900154.000000	10	1.0677	-0.0315	0.0901	-0.0002	0.0005	-0.0010	0.0894	-0.5152	-0.3839	
712900154.000000	10	1.0677	-0.0316	0.0901	0.0004	-0.0004	0.0002	0.1261	-0.5425	-0.4289	
712900154.000000	10	1.0677	-0.0316	0.0901	0.0003	0.0001	-0.0004	0.1175	-0.5514	-0.4345	
712900154.000000	10	1.0677	-0.0315	0.0900	-0.0005	-0.0001	-0.0016	0.1232	-0.5891	-0.4768	
712900154.000000	10	1.0677	-0.0316	0.0901	0.0001	-0.0006	0.0005	0.1248	-0.5418	-0.4247	
712900154.000000	10	1.0677	-0.0315	0.0902	-0.0001	0.0002	0.0011	0.0918	-0.6099	-0.4383	
712900154.000000	10	1.0677	-0.0316	0.0901	0.0002	-0.0005	-0.0009	0.1143	-0.5505	-0.4366	
712900154.000000	10	1.0677	-0.0315	0.0901	0.0006	0.0003	-0.0001	0.1130	-0.5190	-0.3847	
712900154.000000	10	1.0677	-0.0316	0.0900	0.0003	-0.0000	-0.0008	0.1286	-0.6162	-0.4965	
712900154.000000	10	1.0676	-0.0315	0.0902	-0.0010	-0.0004	0.0007	0.0607	-0.6866	-0.4977	
712900154.000000	10	1.0677	-0.0315	0.0901	-0.0001	-0.0000	-0.0000	0.0952	-0.5159	-0.3876	
712900154.000000	10	1.0677	-0.0316	0.0901	0.0004	-0.0003	0.0003	0.1324	-0.6357	-0.4991	
712900154.000000	10	1.0677	-0.0316	0.0900	-0.0004	0.0000	-0.0005	0.1254	-0.6006	-0.4734	
712900154.000000	10	1.0677	-0.0315	0.0902	-0.0002	0.0003	0.0018	0.0827	-0.5967	-0.4405	
712900154.000000	10	1.0677	-0.0315	0.0902	-0.0004	0.0008	0.0007	0.0904	-0.5870	-0.4195	
712900154.000000	10	1.0677	-0.0316	0.0901	-0.0002	-0.0002	-0.0008	0.1639	-0.6354	-0.4931	
712900154.000000	10	1.0677	-0.0315	0.0902	0.0000	0.0005	0.0009	0.1140	-0.5521	-0.4181	
712900154.000000	10	1.0677	-0.0315	0.0901	0.0002	0.0001	-0.0002	0.0823	-0.3870	-0.4277	
712900154.000000	10	1.0678	-0.0315	0.0902	0.0005	0.0007	0.0019	0.1001	-0.5437	-0.4006	
712900154.000000	10	1.0677	-0.0315	0.0902	0.0014	0.0001	-0.0005	0.1312	-0.5600	-0.4429	
712900154.000000	10	1.0677	-0.0315	0.0902	0.0003	-0.0004	0.0007	0.1141	-0.5600	-0.4316	
712900154.000000	10	1.0677	-0.0315	0.0902	-0.0004	0.0007	0.0008	0.0963	-0.6187	-0.4357	
712900154.000000	10	1.0677	-0.0316	0.0902	0.0004	0.0000	0.0019	0.1297	-0.5809	-0.4375	
712900154.000000	10	1.0677	-0.0315	0.0901	0.0001	-0.0003	-0.0014	0.1384	-0.5432	-0.4072	
712900154.000000	10	1.0677	-0.0316	0.0901	0.0004	-0.0007	-0.0010	0.1155	-0.5279	-0.4077	
712900154.000000	10	1.0677	-0.0315	0.0901	0.0000	0.0007	0.0002	0.0676	-0.5543	-0.3889	
712900154.000000	10	1.0677	-0.0315	0.0901	-0.0005	0.0003	-0.0001	0.0914	-0.6443	-0.4881	
712900154.000000	10	1.0677	-0.0315	0.0901	-0.0003	-0.0002	0.0002	0.1169	-0.5157	-0.3939	
712900154.000000	10	1.0677	-0.0316	0.0901	-0.0002	-0.0005	-0.0014	0.1174	-0.5442	-0.4274	
712900154.000000	10	1.0676	-0.0315	0.0901	-0.0013	0.0007	-0.0004	0.0789	-0.5622	-0.3915	
712900154.000000	10	1.0676	-0.0315	0.0901	-0.0010	0.0005	-0.0008	0.0615	-0.6191	-0.4450	
712900154.000000	10	1.0677	-0.0315	0.0902	0.0003	-0.0002	-0.0003	0.1151	-0.5611	-0.4226	
712900154.000000	10	1.0677	-0.0315	0.0902	-0.0002	0.0008	0.0004	0.0683	-0.5685	-0.3983	
712900154.000000	10	1.0677	-0.0315	0.0901	0.0001	0.0002	0.0001	0.1330	-0.5439	-0.4156	
712900154.000000	10	1.0677	-0.0315	0.0901	-0.0005	0.0007	0.0007	0.0522	-0.5562	-0.3887	
712900154.000000	10	1.0677	-0.0315	0.0900	0.0000	-0.0003	-0.0021	0.0939	-0.3926	-0.4401	
712900154.000000	10	1.0677	-0.0315	0.0901	0.0004	-0.0001	-0.0005	0.0967	-0.5162	-0.3848	
712900154.000000	10	1.0677	-0.0315	0.0902	-0.0002	0.0007	0.0012	0.0818	-0.5730	-0.3952	
712900154.000000	10	1.0678	-0.0315	0.0901	0.0002	0.0010	0.0009	0.1200	-0.5499	-0.4193	
712900154.000000	10	1.0677	-0.0315	0.0901	0.0008	-0.0007	-0.0008	0.1094	-0.5684	-0.4435	
712900154.000000	10	1.0677	-0.0315	0.0901	0.0008	-0.0000	0.0002	0.0972	-0.4987	-0.3973	
712900154.000000	10	1.0677	-0.0315	0.0901	-0.0006	0.0000	-0.0007	0.0795	-0.5940	-0.4303	
712900154.000000	10	1.0677	-0.0315	0.0902	-0.0001	0.0001	-0.0001	0.0645	-0.5726	-0.3990	
712900154.000000	10	1.0677	-0.0316	0.0901	0.0002	-0.0003	-0.0001	0.1133	-0.5428	-0.4136	
712900154.000000	10	1.0677	-0.0315	0.0902	0.0002	0.0000	0.0007	0.1007	-0.6111	-0.4273	
712900154.000000	10	1.0677	-0.0315	0.0900	0.0000	-0.0003	0.0007	0.1351	-0.5745	-0.4716	
712900154.000000	10	1.0677	-0.0316	0.0901	-0.0001	-0.0010	-0.0006	0.0909	-0.5505	-0.3834	
712900154.000000	10	1.0677	-0.0315	0.0901	0.0004	-0.0010	-0.0017	0.1257	-0.5606	-0.4594	
712900154.000000	10	1.0677	-0.0316	0.0901	-0.0006	-0.0008	-0.0007	0.1133	-0.5363	-0.4088	
712900154.000000	10	1.0677	-0.0316	0.0902	0.0002	-0.0002	0.0010	0.1191	-0.5669	-0.4358	
712900154.000000	10	1.0677	-0.0315	0.0901	0.0000	-0.0004	-0.0000	0.0959	-0.5173	-0.3896	
712900154.000000	10	1.0677	-0.0315	0.0901	0.0005	-0.0000	0.0001	0.1244	-0.6233	-0.4838	
712900154.000000	10	1.0677	-0.0316	0.0900	0.0002	-0.0011	-0.0021	0.1318	-0.6121	-0.4864	
712900154.000000	10	1.0677	-0.0315	0.0901	-0.0001	0.0001	0.0006	0.1377	-0.6283	-0.4882	
712900154.000000	10	1.0677	-0.0315	0.0901	0.0002	-0.0004	-0.0010	0.1012	-0.5182	-0.3930	
712900154.000000	10	1.0677	-0.0316	0.0901	0.0001	-0.0001	0.0006	0.1313	-0.5511	-0.4983	
712900154.000000	10	1.0677	-0.0315	0.0902	0.0002	0.0005	0.0013	0.1226	-0.5710	-0.4276	
712900154.000000	10	1.0677	-0.0316	0.0901	-0.0001	-0.0001	0.0006	0.1455	-0.5630	-0.4235	
712900154.000000	10	1.0677	-0.0315	0.0902	0.0003	0.0002	0.0010	0.1112	-0.5656	-0.4177	
712900154.000000	10	1.0677	-0.0315	0.0901	-0.0002	0.0002	-0.0008	0.1127	-0.5483	-0.4179	
712900996.000000	10	1.0677	-0.0315	0.0902	-0.0004	0.0004	0.0010	0.0871	-0.5978	-0.4308	
712900996.000000	10	1.0677	-0.0315	0.0902	0.0001	0.0001	0.0009	0.1098	-0.5389	-0.4083	
712900996.000000	10	1.0677	-0.0316	0.0901	-0.0003	0.0004	0.0008	0.0836	-0.5879	-0.4326	
712900996.000000	10	1.0677	-0.0315	0.0901	-0.0002	0.0002	0.0002	0.1007	-0.6646	-0.4894	
