	t	ID	x	y	z	vx	vy	vz	yaw	roll	pitch	
-6277438562204192487878988888393020692503707483087375482269988814848.000000	10	1.0677	-0.0315	0.0901	12.8125	-0.3785	1.0813	0.0945	-0.5269	-0.3769	
-6277438562204192487878988888393020692503707483087375482269988814848.000000	10	1.0677	-0.0316	0.0901	12.8124	-0.3787	1.0810	0.1196	-0.5496	-0.4272	
-6277438562204192487878988888393020692503707483087375482269988814848.000000	10	1.0677	-0.0316	0.0901	12.8129	-0.3788	1.0810	0.1208	-0.5556	-0.4355	
-6277438562204192487878988888393020692503707483087375482269988814848.000000	10	1.0677	-0.0315	0.0901	12.8122	-0.3779	1.0815	0.1008	-0.6509	-0.4821	
-6277438562204192487878988888393020692503707483087375482269988814848.000000	10	1.0677	-0.0315	0.0902	12.8127	-0.3785	1.0819	0.1166	-0.5649	-0.4301	
-6277438562204192487878988888393020692503707483087375482269988814848.000000	10	1.0677	-0.0315	0.0902	12.8122	-0.3782	1.0823	0.0927	-0.6020	-0.4347	
-6277438562204192487878988888393020692503707483087375482269988814848.000000	10	1.0677	-0.0316	0.0901	12.8130	-0.3789	1.0818	0.1248	-0.5794	-0.4463	
-6277438562204192487878988888393020692503707483087375482269988814848.000000	10	1.0677	-0.0315	0.0901	12.8122	-0.3783	1.0809	0.1330	-0.5375	-0.4258	
-6277438562204192487878988888393020692503707483087375482269988814848.000000	10	1.0677	-0.0316	0.0901	12.8123	-0.3787	1.0810	0.1228	-0.5359	-0.4180	
-6277438562204192487878988888393020692503707483087375482269988814848.000000	10	1.0677	-0.0315	0.0901	12.8122	-0.3784	1.0810	0.1425	-0.5369	-0.4252	
-6277438562204192487878988888393020692503707483087375482269988814848.000000	10	1.0676	-0.0315	0.0901	-0.0009	0.0004	-0.0006	0.0983	-0.5232	-0.4274	
-6277438562204192487878988888393020692503707483087375482269988814848.000000	10	1.0677	-0.0316	0.0901	0.0000	-0.0000	-0.0001	0.1210	-0.5442	-0.4283	
-6277438562204192487878988888393020692503707483087375482269988814848.000000	10	1.0677	-0.0316	0.0902	-0.0009	-0.0007	0.0012	0.2149	-0.5500	-0.4088	
-6277438562204192487878988888393020692503707483087375482269988814848.000000	10	1.0677	-0.0315	0.0901	-0.0001	-0.0005	-0.0005	0.1484	-0.5468	-0.4271	
-6277438562204192487878988888393020692503707483087375482269988814848.000000	10	1.0677	-0.0315	0.0900	-0.0004	0.0001	-0.0015	0.1317	-0.5774	-0.4822	
-6277438562204192487878988888393020692503707483087375482269988814848.000000	10	1.0677	-0.0316	0.0901	0.0002	-0.0005	-0.0013	0.1205	-0.5450	-0.4181	
-6277438562204192487878988888393020692503707483087375482269988814848.000000	10	1.0677	-0.0316	0.0901	-0.0006	0.0002	-0.0008	0.1178	-0.5406	-0.4095	
-6277438562204192487878988888393020692503707483087375482269988814848.000000	10	1.0677	-0.0315	0.0901	-0.0003	0.0002	0.0001	0.1368	-0.5362	-0.4074	
-6277438562204192487878988888393020692503707483087375482269988814848.000000	10	1.0677	-0.0315	0.0901	-0.0002	0.0002	-0.0000	0.1384	-0.5421	-0.4163	
-6277438562204192487878988888393020692503707483087375482269988814848.000000	10	1.0677	-0.0315	0.0902	0.0005	-0.0001	0.0010	0.1133	-0.5736	-0.4322	
-6277438562204192487878988888393020692503707483087375482269988814848.000000	10	1.0677	-0.0315	0.0902	0.0006	0.0001	0.0016	0.0838	-0.6030	-0.4388	
-6277438562204192487878988888393020692503707483087375482269988814848.000000	10	1.0677	-0.0315	0.0902	0.0003	0.0003	0.0011	0.1210	-0.5627	-0.4317	
-6277438562204192487878988888393020692503707483087375482269988814848.000000	10	1.0677	-0.0315	0.0901	0.0003	0.0011	-0.0011	0.1379	-0.5421	-0.4069	
-6277438562204192487878988888393020692503707483087375482269988814848.000000	10	1.0677	-0.0316	0.0900	0.0004	-0.0005	-0.0005	0.1192	-0.6123	-0.4862	
-6277438562204192487878988888393020692503707483087375482269988814848.000000	10	1.0677	-0.0315	0.0902	0.0006	0.0002	0.0017	0.1216	-0.5613	-0.4405	
-6277438562204192487878988888393020692503707483087375482269988814848.000000	10	1.0677	-0.0315	0.0902	0.0003	0.0001	0.0010	0.1151	-0.5613	-0.4187	
-6277438562204192487878988888393020692503707483087375482269988814848.000000	10	1.0677	-0.0316	0.0901	-0.0005	-0.0011	0.0002	0.2103	-0.5295	-0.3998	
-6277438562204192487878988888393020692503707483087375482269988814848.000000	10	1.0677	-0.0316	0.0901	0.0004	-0.0009	-0.0003	0.1210	-0.6175	-0.4659	
-6277438562204192487878988888393020692503707483087375482269988814848.000000	10	1.0677	-0.0315	0.0902	0.0007	-0.0001	0.0008	0.1215	-0.5544	-0.4241	
-6277438562204192487878988888393020692503707483087375482269988814848.000000	10	1.0677	-0.0316	0.0900	-0.0001	-0.0005	-0.0017	0.1352	-0.6041	-0.4874	
-6277438562204192487878988888393020692503707483087375482269988814848.000000	10	1.0680	-0.0314	0.0902	0.0034	0.0007	-0.0003	-0.0395	-0.4260	-0.3042	
-6277438562204192487878988888393020692503707483087375482269988814848.000000	10	1.0677	-0.0316	0.0901	-0.0002	-0.0003	-0.0011	0.1184	-0.5469	-0.4199	
-6277438562204192487878988888393020692503707483087375482269988814848.000000	10	1.0677	-0.0315	0.0901	-0.0000	0.0001	0.0003	0.1510	-0.6243	-0.4988	
-6277438562204192487878988888393020692503707483087375482269988814848.000000	10	1.0677	-0.0315	0.0901	-0.0006	0.0006	0.0011	0.0744	-0.5532	-0.3853	
-6277438562204192487878988888393020692503707483087375482269988814848.000000	10	1.0677	-0.0316	0.0902	-0.0001	-0.0005	-0.0002	0.1226	-0.5668	-0.4294	
-6277438562204192487878988888393020692503707483087375482269988814848.000000	10	1.0677	-0.0315	0.0901	-0.0008	0.0002	-0.0007	0.0820	-0.5860	-0.4227	
-6277438562204192487878988888393020692503707483087375482269988814848.000000	10	1.0677	-0.0315	0.0902	0.0011	0.0014	0.0006	0.1228	-0.5453	-0.4264	
-6277438562204192487878988888393020692503707483087375482269988814848.000000	10	1.0677	-0.0315	0.0902	0.0001	0.0007	0.0011	0.1446	-0.5702	-0.4252	
-6277438562204192487878988888393020692503707483087375482269988814848.000000	10	1.0677	-0.0316	0.0901	-0.0002	-0.0001	-0.0004	0.1353	-0.6200	-0.4850	
-6277438562204192487878988888393020692503707483087375482269988814848.000000	10	1.0677	-0.0316	0.0901	-0.0001	0.0003	0.0007	0.1171	-0.5503	-0.4234	
-6277438562204192487878988888393020692503707483087375482269988814848.000000	10	1.0677	-0.0316	0.0901	-0.0029	-0.0016	-0.0009	0.1055	-0.5285	-0.4078	
-6277438562204192487878988888393020692503707483087375482269988814848.000000	10	1.0677	-0.0315	0.0902	0.0002	0.0002	0.0011	0.1159	-0.5744	-0.4303	
-6277438562204192487878988888393020692503707483087375482269988814848.000000	10	1.0677	-0.0315	0.0901	0.0001	0.0000	-0.0003	0.1329	-0.5358	-0.4205	
-6277438562204192487878988888393020692503707483087375482269988814848.000000	10	1.0677	-0.0316	0.0901	0.0004	-0.0004	-0.0006	0.1174	-0.5420	-0.4135	
-6277438562204192487878988888393020692503707483087375482269988814848.000000	10	1.0677	-0.0315	0.0902	-0.0002	0.0006	0.0003	0.1585	-0.5623	-0.4433	
-6277438562204192487878988888393020692503707483087375482269988814848.000000	10	1.0677	-0.0315	0.0902	0.0009	-0.0000	0.0008	0.1171	-0.5581	-0.4242	
-6277438562204192487878988888393020692503707483087375482269988814848.000000	10	1.0677	-0.0316	0.0901	-0.0006	-0.0004	-0.0008	0.1168	-0.5391	-0.4119	
-6277438562204192487878988888393020692503707483087375482269988814848.000000	10	1.0677	-0.0317	0.0901	-0.0002	-0.0018	-0.0007	0.1789	-0.5354	-0.3996	
-6277438562204192487878988888393020692503707483087375482269988814848.000000	10	1.0677	-0.0315	0.0901	-0.0005	0.0005	0.0002	0.0741	-0.5521	-0.3988	
-6277438562204192487878988888393020692503707483087375482269988814848.000000	10	1.0677	-0.0315	0.0901	-0.0000	0.0005	0.0003	0.0920	-0.5244	-0.3990	
-6277438562204192487878988888393020692503707483087375482269988814848.000000	10	1.0677	-0.0315	0.0902	0.0000	0.0005	0.0006	0.1243	-0.5675	-0.4244	
-6277438562204192487878988888393020692503707483087375482269988814848.000000	10	1.0677	-0.0316	0.0900	-0.0006	-0.0004	-0.0017	0.1267	-0.5952	-0.4732	
-6277438562204192487878988888393020692503707483087375482269988814848.000000	10	1.0677	-0.0315	0.0901	0.0001	-0.0001	0.0002	0.1053	-0.5121	-0.3900	
-6277438562204192487878988888393020692503707483087375482269988814848.000000	10	1.0677	-0.0315	0.0901	-0.0003	0.0005	0.0008	0.0829	-0.5452	-0.3987	
-6277438562204192487878988888393020692503707483087375482269988814848.000000	10	1.0677	-0.0315	0.0902	-0.0003	-0.0001	0.0001	0.0782	-0.5989	-0.4256	
-6277438562204192487878988888393020692503707483087375482269988814848.000000	10	1.0677	-0.0315	0.0902	-0.0006	0.0002	0.0002	0.0856	-0.6107	-0.4277	
-6277438562204192487878988888393020692503707483087375482269988814848.000000	10	1.0677	-0.0315	0.0901	0.0005	0.0004	0.0002	0.1306	-0.5133	-0.3987	
-6277438562204192487878988888393020692503707483087375482269988814848.000000	10	1.0677	-0.0316	0.0902	0.0007	0.0013	0.0007	0.1199	-0.5824	-0.4420	
-6277438562204192487878988888393020692503707483087375482269988814848.000000	10	1.0677	-0.0315	0.0902	0.0007	-0.0002	0.0003	0.1151	-0.5679	-0.4283	
-6277438562204192487878988888393020692503707483087375482269988814848.000000	10	1.0678	-0.0316	0.0902	0.0007	-0.0004	0.0007	0.1106	-0.5610	-0.4203	
-6277438562204192487878988888393020692503707483087375482269988814848.000000	10	1.0677	-0.0316	0.0900	-0.0004	-0.0006	-0.0014	0.1259	-0.6090	-0.4871	
-6277438562204192487878988888393020692503707483087375482269988814848.000000	10	1.0677	-0.0316	0.0901	0.0007	-0.0000	0.0008	0.1109	-0.5427	-0.4107	
-6277438562204192487878988888393020692503707483087375482269988814848.000000	10	1.0677	-0.0315	0.0901	-0.0001	-0.0001	-0.0002	0.1220	-0.5422	-0.4212	
-6277438562204192487878988888393020692503707483087375482269988814848.000000	10	1.0677	-0.0315	0.0901	0.0006	-0.0003	-0.0006	0.1171	-0.5330	-0.4178	
-6277438562204192487878988888393020692503707483087375482269988814848.000000	10	1.0677	-0.0316	0.0901	0.0006	-0.0007	-0.0010	0.1090	-0.5284	-0.3992	
-6277438562204192487878988888393020692503707483087375482269988814848.000000	10	1.0677	-0.0316	0.0901	0.0003	-0.0005	-0.0013	0.1186	-0.5400	-0.4214	
-6277438562204192487878988888393020692503707483087375482269988814848.000000	10	1.0677	-0.0316	0.0901	-0.0003	-0.0003	0.0001	0.1171	-0.5214	-0.4040	
-6277438562204192487878988888393020692503707483087375482269988814848.000000	10	1.0677	-0.0315	0.0901	-0.0007	0.0003	-0.0001	0.0966	-0.6647	-0.4917	
-6277438562204192487878988888393020692503707483087375482269988814848.000000	10	1.0675	-0.0313	0.0904	-0.0024	0.0031	0.0031	0.0546	-0.2251	-0.0763	
-6277438562204192487878988888393020692503707483087375482269988814848.000000	10	1.0677	-0.0316	0.0901	-0.0009	-0.0001	-0.0010	0.1193	-0.5411	-0.4198	
-6277438562204192487878988888393020692503707483087375482269988814848.000000	10	1.0677	-0.0315	0.0902	0.0001	0.0011	0.0014	0.1464	-0.5417	-0.4251	
-6277438562204192487878988888393020692503707483087375482269988814848.000000	10	1.0678	-0.0315	0.0901	0.0002	0.0003	0.0001	0.1073	-0.5241	-0.4129	
-6277438562204192487878988888393020692503707483087375482269988814848.000000	10	1.0677	-0.0315	0.0902	0.0003	-0.0000	0.0012	0.1098	-0.5304	-0.4041	
-6277438562204192487878988888393020692503707483087375482269988814848.000000	10	1.0677	-0.0316	0.0900	-0.0000	-0.0003	-0.0007	0.1200	-0.4880	-0.4569	
-6277438562204192487878988888393020692503707483087375482269988814848.000000	10	1.0677	-0.0316	0.0902	0.0001	0.0002	0.0006	0.1239	-0.5884	-0.4399	
-6277438562204192487878988888393020692503707483087375482269988814848.000000	10	1.0677	-0.0316	0.0901	0.0004	0.0000	-0.0001	0.1141	-0.5474	-0.4243	
-6277438562204192487878988888393020692503707483087375482269988814848.000000	10	1.0677	-0.0316	0.0901	0.0000	-0.0003	-0.0005	0.1181	-0.5610	-0.4311	
-6277438562204192487878988888393020692503707483087375482269988814848.000000	10	1.0677	-0.0316	0.0902	0.0007	-0.0003	0.0002	0.1198	-0.5795	-0.4423	
-6277438562204192487878988888393020692503707483087375482269988814848.000000	10	1.0677	-0.0316	0.0901	0.0023	-0.0034	-0.0042	0.1196	-0.5427	-0.4139	
-6277438562204192487878988888393020692503707483087375482269988814848.000000	10	1.0677	-0.0315	0.0902	0.0004	0.0002	0.0010	0.1094	-0.5674	-0.4269	
-6277438562204192487878988888393020692503707483087375482269988814848.000000	10	1.0677	-0.0315	0.0901	0.0003	-0.0001	-0.0001	0.1260	-0.5510	-0.4290	
-6277438562204192487878988888393020692503707483087375482269988814848.000000	10	1.0677	-0.0316	0.0901	-0.0007	-0.0001	-0.0002	0.1135	-0.5350	-0.4161	
-6277438562204192487878988888393020692503707483087375482269988814848.000000	10	1.0677	-0.0315	0.0901	0.0000	0.0001	-0.0006	0.1221	-0.5956	-0.4706	
-6277438562204192487878988888393020692503707483087375482269988814848.000000	10	1.0677	-0.0315	0.0902	0.0001	0.0003	0.0014	0.1148	-0.5640	-0.4318	
-6277438562204192487878988888393020692503707483087375482269988814848.000000	10	1.0677	-0.0315	0.0902	-0.0001	0.0006	0.0003	0.0985	-0.5378	-0.3952	
-6277438562204192487878988888393020692503707483087375482269988814848.000000	10	1.0677	-0.0315	0.0901	-0.0010	0.0003	0.0003	0.0737	-0.5788	-0.4099	
-6277438562204192487878988888393020692503707483087375482269988814848.000000	10	1.0677	-0.0315	0.0901	0.0001	0.0004	0.0001	0.1079	-0.5670	-0.4333	
-6277438562204192487878988888393020692503707483087375482269988814848.000000	10	1.0677	-0.0315	0.0902	-0.0002	0.0004	0.0002	0.1329	-0.5659	-0.4402	
-6277438562204192487878988888393020692503707483087375482269988814848.000000	10	1.0677	-0.0316	0.0902	-0.0001	-0.0003	0.0011	0.1284	-0.6340	-0.4850	
-6277438562204192487878988888393020692503707483087375482269988814848.000000	10	1.0677	-0.0316	0.0901	-0.0002	-0.0002	-0.0010	0.1204	-0.5437	-0.4198	
-6277438562204192487878988888393020692503707483087375482269988814848.000000	10	1.0677	-0.0315	0.0901	-0.0009	0.0003	-0.0002	0.0543	-0.5428	-0.3811	
-6277438562204192487878988888393020692503707483087375482269988814848.000000	10	1.0677	-0.0316	0.0901	0.0000	-0.0000	0.0004	0.1312	-0.6255	-0.4920	
-6277438562204192487878988888393020692503707483087375482269988814848.000000	10	1.0677	-0.0316	0.0901	-0.0001	-0.0005	-0.0006	0.1246	-0.5561	-0.4247	
-6277438562204192487878988888393020692503707483087375482269988814848.000000	10	1.0677	-0.0315	0.0901	-0.0001	0.0002	-0.0002	0.1067	-0.5957	-0.4575	
-6277438562204192487878988888393020692503707483087375482269988814848.000000	10	1.0677	-0.0315	0.0902	-0.0001	-0.0001	0.0002	0.1327	-0.5456	-0.3942	
-6277438562204192487878988888393020692503707483087375482269988814848.000000	10	1.0677	-0.0315	0.0902	0.0007	-0.0001	0.0009	0.1144	-0.5866	-0.4289	
-6277438562204192487878988888393020692503707483087375482269988814848.000000	10	1.0677	-0.0315	0.0901	-0.0003	0.0002	0.0006	0.0672	-0.5599	-0.3969	
-6277438562204192487878988888393020692503707483087375482269988814848.000000	10	1.0677	-0.0315	0.0901	-0.0001	-0.0000	-0.0008	0.1129	-0.5140	-0.3972	
-6277438562204192487878988888393020692503707483087375482269988814848.000000	10	1.0677	-0.0315	0.0901	-0.0002	0.0009	-0.0006	0.1283	-0.6176	-0.4917	
-6277438562204192487878988888393020692503707483087375482269988814848.000000	10	1.0677	-0.0315	0.0901	-0.0002	0.0004	0.0001	0.1338	-0.5418	-0.4256	
-6277438562204192487878988888393020692503707483087375482269988814848.000000	10	1.0677	-0.0315	0.0901	0.0009	-0.0005	0.0001	0.1301	-0.5474	-0.4251	
712791362.000000	10	1.0677	-0.0316	0.0902	0.0005	-0.0001	0.0009	0.1146	-0.5546	-0.4070	
712791362.000000	10	1.0677	-0.0315	0.0902	-0.0004	0.0013	0.0016	0.0517	-0.5689	-0.3864	
712791362.000000	10	1.0677	-0.0316	0.0900	-0.0003	-0.0004	-0.0011	0.1276	-0.5996	-0.4757	
712791362.000000	10	1.0677	-0.0315	0.0901	-0.0003	-0.0004	-0.0013	0.1121	-0.5325	-0.4179	
712791362.000000	10	1.0677	-0.0316	0.0901	-0.0002	-0.0003	-0.0012	0.1161	-0.5358	-0.4106	
712791362.000000	10	1.0675	-0.0313	0.0904	-0.0024	0.0030	0.0027	0.0589	-0.2071	-0.0611	
712791362.000000	10	1.0677	-0.0315	0.0902	0.0002	-0.0000	0.0009	0.1161	-0.5425	-0.4075	
712791362.000000	10	1.0677	-0.0315	0.0902	0.0005	-0.0003	0.0007	0.1272	-0.5503	-0.4422	
712791362.000000	10	1.0677	-0.0316	0.0901	-0.0001	-0.0004	-0.0005	0.1302	-0.5948	-0.4627	
712791362.000000	10	1.0677	-0.0315	0.0901	-0.0004	-0.0003	-0.0007	0.1268	-0.5415	-0.4208	
712791362.000000	10	1.0677	-0.0316	0.0901	-0.0004	0.0001	-0.0010	0.1328	-0.6183	-0.4895	
712791362.000000	10	1.0678	-0.0315	0.0902	0.0009	-0.0001	-0.0004	0.1238	-0.5095	-0.4133	
712791362.000000	10	1.0677	-0.0316	0.0901	0.0000	-0.0001	0.0005	0.1215	-0.5414	-0.4150	
712791362.000000	10	1.0677	-0.0315	0.0901	-0.0001	0.0002	0.0001	0.1333	-0.5474	-0.4223	
712791362.000000	10	1.0677	-0.0315	0.0902	0.0005	0.0002	0.0010	0.1134	-0.5651	-0.4196	
712791362.000000	10	1.0677	-0.0316	0.0902	0.0026	-0.0032	-0.0020	0.0837	-0.6140	-0.4378	
712791362.000000	10	1.0677	-0.0316	0.0901	-0.0003	-0.0006	-0.0013	0.1201	-0.5538	-0.4289	
712791362.000000	10	1.0677	-0.0315	0.0902	-0.0006	0.0001	0.0001	0.0890	-0.6026	-0.4329	
712791362.000000	10	1.0677	-0.0315	0.0902	0.0005	0.0001	0.0014	0.1289	-0.5681	-0.4403	
712791362.000000	10	1.0677	-0.0315	0.0901	0.0000	0.0005	0.0003	0.0909	-0.5066	-0.3889	
712791362.000000	10	1.0677	-0.0316	0.0902	0.0005	-0.0000	0.0010	0.1088	-0.5619	-0.3906	
712791362.000000	10	1.0677	-0.0316	0.0901	-0.0007	-0.0009	-0.0014	0.1188	-0.5732	-0.4524	
712791362.000000	10	1.0677	-0.0315	0.0901	0.0002	0.0003	-0.0000	0.1196	-0.5305	-0.4258	
712791362.000000	10	1.0677	-0.0315	0.0902	0.0004	-0.0002	0.0008	0.1144	-0.5637	-0.4359	
712791362.000000	10	1.0677	-0.0315	0.0901	0.0000	0.0004	-0.0007	0.1320	-0.6003	-0.4833	
712791362.000000	10	1.0677	-0.0315	0.0902	0.0002	0.0002	-0.0003	0.1094	-0.5668	-0.4277	
712791362.000000	10	1.0677	-0.0315	0.0901	-0.0001	0.0005	0.0002	0.1151	-0.5353	-0.4134	
712791362.000000	10	1.0677	-0.0316	0.0901	0.0003	-0.0004	-0.0013	0.1057	-0.5440	-0.4122	
712791362.000000	10	1.0677	-0.0316	0.0901	-0.0002	-0.0001	-0.0006	0.1257	-0.6240	-0.4793	
712791362.000000	10	1.0675	-0.0312	0.0904	-0.0031	0.0033	0.0030	-0.0013	-0.1265	-0.0951	
712791362.000000	10	1.0677	-0.0316	0.0900	-0.0008	-0.0001	-0.0018	0.1227	-0.5961	-0.4715	
712791362.000000	10	1.0677	-0.0315	0.0902	0.0003	0.0003	0.0012	0.1208	-0.5688	-0.4328	
712791362.000000	10	1.0677	-0.0315	0.0901	-0.0005	-0.0001	-0.0003	0.0685	-0.5293	-0.4368	
712791362.000000	10	1.0677	-0.0315	0.0902	-0.0000	0.0004	0.0004	0.1251	-0.5324	-0.3969	
712791362.000000	10	1.0677	-0.0315	0.0901	-0.0003	-0.0005	-0.0002	0.1152	-0.5538	-0.4118	
712791362.000000	10	1.0677	-0.0315	0.0902	-0.0005	0.0001	0.0003	0.0867	-0.6061	-0.4285	
712791362.000000	10	1.0677	-0.0316	0.0901	-0.0000	-0.0001	-0.0000	0.1155	-0.5442	-0.4112	
712791362.000000	10	1.0677	-0.0315	0.0901	-0.0000	0.0003	0.0006	0.1110	-0.5978	-0.4554	
712791362.000000	10	1.0677	-0.0316	0.0900	-0.0003	-0.0001	-0.0009	0.1284	-0.5901	-0.4725	
712791362.000000	10	1.0677	-0.0317	0.0902	0.0031	-0.0053	-0.0021	0.1896	-0.5436	-0.4127	
712791362.000000	10	1.0677	-0.0316	0.0900	0.0000	0.0002	-0.0000	0.1057	-0.4802	-0.4248	
712791362.000000	10	1.0678	-0.0315	0.0901	0.0003	-0.0001	-0.0003	0.0531	-0.5690	-0.3759	
712791362.000000	10	1.0677	-0.0316	0.0901	0.0005	-0.0006	-0.0000	0.0769	-0.5547	-0.3763	
712791362.000000	10	1.0677	-0.0315	0.0902	0.0001	-0.0003	-0.0002	0.1207	-0.5448	-0.4238	
712791362.000000	10	1.0677	-0.0315	0.0900	-0.0003	0.0004	-0.0010	0.0750	-0.3660	-0.4106	
712791362.000000	10	1.0677	-0.0315	0.0901	0.0003	0.0005	-0.0005	0.1297	-0.5948	-0.4612	
712791362.000000	10	1.0677	-0.0315	0.0902	0.0003	0.0007	0.0012	0.0964	-0.5284	-0.4005	
712791362.000000	10	1.0677	-0.0315	0.0901	0.0001	-0.0002	-0.0007	0.1111	-0.5416	-0.4139	
712791362.000000	10	1.0677	-0.0316	0.0901	0.0002	0.0001	0.0005	0.1222	-0.5431	-0.4200	
712791362.000000	10	1.0677	-0.0315	0.0902	0.0001	0.0015	-0.0001	0.1222	-0.5677	-0.4284	
712791362.000000	10	1.0676	-0.0315	0.0901	-0.0004	0.0001	0.0008	0.0855	-0.5845	-0.4241	
712791362.000000	10	1.0677	-0.0315	0.0901	-0.0007	0.0002	-0.0001	0.1570	-0.6170	-0.4871	
712791362.000000	10	1.0677	-0.0316	0.0901	-0.0001	0.0005	0.0004	0.1264	-0.5429	-0.4319	
712791362.000000	10	1.0677	-0.0317	0.0902	-0.0005	-0.0015	0.0003	0.1964	-0.5492	-0.4039	
712791362.000000	10	1.0676	-0.0315	0.0901	-0.0005	-0.0003	0.0006	0.0919	-0.6309	-0.4732	
712791362.000000	10	1.0677	-0.0316	0.0901	0.0000	-0.0010	-0.0009	0.1174	-0.5485	-0.4201	
712791362.000000	10	1.0677	-0.0317	0.0901	-0.0008	-0.0019	-0.0015	0.1906	-0.5818	-0.4406	
712791362.000000	10	1.0677	-0.0315	0.0901	0.0000	-0.0001	0.0005	0.1350	-0.6155	-0.4892	
712791362.000000	10	1.0677	-0.0315	0.0901	0.0002	0.0004	0.0004	0.1111	-0.5172	-0.3936	
712791362.000000	10	1.0677	-0.0315	0.0901	-0.0007	0.0008	-0.0004	0.0602	-0.5466	-0.3830	
712791362.000000	10	1.0677	-0.0316	0.0901	0.0010	-0.0005	-0.0005	0.1195	-0.5448	-0.4297	
712791362.000000	10	1.0676	-0.0315	0.0901	-0.0007	-0.0003	-0.0009	0.1174	-0.6553	-0.4949	
712791362.000000	10	1.0677	-0.0315	0.0901	0.0000	0.0001	0.0002	0.1028	-0.5243	-0.3984	
712791362.000000	10	1.0677	-0.0316	0.0901	0.0006	0.0011	-0.0014	0.1141	-0.5505	-0.4220	
712791362.000000	10	1.0677	-0.0316	0.0900	0.0005	-0.0001	-0.0002	0.1175	-0.5941	-0.4721	
712791362.000000	10	1.0677	-0.0315	0.0901	-0.0002	0.0001	0.0003	0.0785	-0.5908	-0.4367	
712791362.000000	10	1.0676	-0.0315	0.0901	-0.0003	0.0017	0.0007	0.1021	-0.5809	-0.4159	
712791362.000000	10	1.0677	-0.0316	0.0901	-0.0003	-0.0000	-0.0002	0.1291	-0.5414	-0.4221	
712791362.000000	10	1.0677	-0.0317	0.0901	-0.0003	-0.0021	-0.0003	0.1885	-0.5415	-0.4006	
712791362.000000	10	1.0677	-0.0316	0.0901	0.0008	-0.0010	-0.0007	0.1141	-0.5572	-0.4424	
712791362.000000	10	1.0677	-0.0315	0.0901	0.0000	0.0007	0.0004	0.1141	-0.4966	-0.4013	
712791362.000000	10	1.0677	-0.0315	0.0902	0.0011	0.0001	0.0013	0.1253	-0.5760	-0.4346	
712791362.000000	10	1.0677	-0.0316	0.0901	-0.0002	-0.0002	-0.0002	0.1144	-0.5339	-0.4155	
712791362.000000	10	1.0677	-0.0315	0.0901	0.0001	0.0004	0.0008	0.1162	-0.5855	-0.4512	
712791362.000000	10	1.0677	-0.0315	0.0901	0.0003	0.0005	0.0008	0.0911	-0.5082	-0.3886	
712791362.000000	10	1.0677	-0.0315	0.0901	-0.0003	0.0003	0.0001	0.0623	-0.6109	-0.4314	
712791362.000000	10	1.0677	-0.0315	0.0901	0.0009	-0.0000	-0.0001	0.0904	-0.5063	-0.3791	
712791362.000000	10	1.0677	-0.0316	0.0901	0.0003	-0.0002	-0.0001	0.1133	-0.5433	-0.4223	
712791362.000000	10	1.0677	-0.0316	0.0901	-0.0001	0.0015	-0.0005	0.1353	-0.5871	-0.4677	
712791362.000000	10	1.0677	-0.0315	0.0901	-0.0010	0.0005	0.0004	0.0820	-0.5872	-0.4172	
712791362.000000	10	1.0677	-0.0315	0.0901	-0.0009	-0.0002	0.0000	0.0781	-0.5898	-0.4143	
712791362.000000	10	1.0677	-0.0316	0.0900	-0.0006	-0.0002	-0.0014	0.1321	-0.5938	-0.4784	
712791362.000000	10	1.0677	-0.0315	0.0901	-0.0002	0.0006	0.0002	0.0363	-0.4705	-0.3767	
712791362.000000	10	1.0677	-0.0315	0.0902	-0.0002	0.0000	0.0002	0.1248	-0.5678	-0.4454	
712791362.000000	10	1.0677	-0.0316	0.0901	-0.0001	-0.0006	-0.0004	0.1240	-0.5444	-0.4160	
712791362.000000	10	1.0677	-0.0316	0.0901	0.0004	-0.0004	-0.0003	0.1140	-0.5325	-0.4192	
712791362.000000	10	1.0677	-0.0315	0.0902	0.0001	0.0001	0.0008	0.1453	-0.5620	-0.4412	
712791362.000000	10	1.0676	-0.0315	0.0901	-0.0010	0.0004	-0.0002	0.0908	-0.6291	-0.4709	
712791362.000000	10	1.0678	-0.0315	0.0902	0.0010	0.0007	0.0016	0.0955	-0.5555	-0.4238	
712791362.000000	10	1.0678	-0.0316	0.0901	0.0013	-0.0003	-0.0001	0.1235	-0.6231	-0.4986	
712791362.000000	10	1.0678	-0.0315	0.0902	0.0013	0.0001	0.0010	0.1061	-0.5440	-0.4044	
712791362.000000	10	1.0677	-0.0315	0.0902	-0.0003	0.0007	0.0019	0.1066	-0.6041	-0.4376	
712791362.000000	10	1.0677	-0.0316	0.0901	0.0000	-0.0008	-0.0004	0.1194	-0.5310	-0.4178	
712791362.000000	10	1.0677	-0.0315	0.0901	0.0000	-0.0001	-0.0002	0.1089	-0.4683	-0.4132	
712791362.000000	10	1.0675	-0.0313	0.0904	-0.0025	0.0037	0.0033	0.0860	-0.1998	-0.0659	
712791362.000000	10	1.0677	-0.0315	0.0901	0.0000	0.0004	0.0007	0.1092	-0.5936	-0.4664	
712791362.000000	10	1.0677	-0.0316	0.0901	-0.0006	-0.0005	-0.0008	0.0807	-0.5979	-0.4247	
712791362.000000	10	1.0677	-0.0316	0.0901	0.0011	-0.0005	0.0000	0.1096	-0.5590	-0.4195	
712791362.000000	10	1.0677	-0.0315	0.0901	-0.0007	-0.0005	-0.0011	0.1111	-0.5473	-0.4140	
712791362.000000	10	1.0677	-0.0315	0.0901	-0.0004	0.0001	-0.0001	0.1272	-0.6428	-0.5132	
712791362.000000	10	1.0677	-0.0316	0.0900	-0.0007	-0.0003	-0.0017	0.1385	-0.5912	-0.4797	
712792204.000000	10	1.0677	-0.0316	0.0900	-0.0001	-0.0014	-0.0026	0.0526	-0.6010	-0.4500	
712792204.000000	10	1.0677	-0.0316	0.0900	-0.0000	-0.0000	-0.0005	0.1300	-0.5945	-0.4665	
712792204.000000	10	1.0677	-0.0315	0.0901	-0.0007	0.0003	-0.0004	0.0716	-0.5871	-0.4022	
712792204.000000	10	1.0677	-0.0316	0.0901	0.0029	-0.0040	-0.0034	0.1191	-0.5480	-0.4312	
712792204.000000	10	1.0677	-0.0316	0.0901	-0.0004	-0.0004	-0.0006	0.1410	-0.5505	-0.4250	
712792204.000000	10	1.0676	-0.0315	0.0901	-0.0003	0.0002	0.0001	0.0795	-0.5859	-0.4176	
712792204.000000	10	1.0677	-0.0316	0.0901	-0.0003	0.0002	0.0000	0.1183	-0.5362	-0.4152	
712792204.000000	10	1.0677	-0.0315	0.0901	0.0001	0.0001	0.0004	0.1102	-0.5166	-0.3908	
712792204.000000	10	1.0677	-0.0316	0.0901	-0.0000	-0.0002	-0.0003	0.1257	-0.5436	-0.4312	
712792204.000000	10	1.0677	-0.0316	0.0901	0.0001	0.0001	0.0005	0.1118	-0.5308	-0.4126	
712792204.000000	10	1.0677	-0.0315	0.0902	0.0010	0.0012	0.0024	0.0960	-0.5351	-0.3996	
712792204.000000	10	1.0677	-0.0315	0.0901	0.0001	0.0003	0.0006	0.1156	-0.5398	-0.4150	
712792204.000000	10	1.0677	-0.0315	0.0902	0.0008	-0.0002	0.0006	0.1320	-0.5678	-0.4308	
712792204.000000	10	1.0677	-0.0316	0.0901	-0.0004	0.0003	0.0000	0.1230	-0.5671	-0.4380	
712792204.000000	10	1.0677	-0.0316	0.0901	0.0002	-0.0009	0.0001	0.1850	-0.5082	-0.3871	
712792204.000000	10	1.0677	-0.0316	0.0901	0.0006	-0.0003	-0.0004	0.1168	-0.5430	-0.4180	
712792204.000000	10	1.0677	-0.0315	0.0901	0.0001	0.0005	-0.0004	0.1195	-0.5526	-0.4484	
712792204.000000	10	1.0677	-0.0316	0.0901	-0.0004	-0.0006	0.0000	0.1095	-0.5550	-0.4117	
712792204.000000	10	1.0677	-0.0315	0.0902	0.0001	0.0010	0.0013	0.1152	-0.5291	-0.4042	
712792204.000000	10	1.0677	-0.0315	0.0902	0.0002	0.0001	0.0009	0.1207	-0.5716	-0.4273	
712792204.000000	10	1.0677	-0.0317	0.0901	-0.0004	-0.0023	-0.0010	0.1931	-0.5257	-0.4078	
712792204.000000	10	1.0677	-0.0315	0.0901	0.0001	0.0002	0.0002	0.0958	-0.5088	-0.3826	
712792204.000000	10	1.0677	-0.0315	0.0901	-0.0004	-0.0000	-0.0008	0.1190	-0.5370	-0.4288	
712792204.000000	10	1.0677	-0.0315	0.0902	0.0003	0.0001	0.0010	0.1243	-0.5675	-0.4317	
712792204.000000	10	1.0676	-0.0315	0.0901	-0.0006	0.0010	-0.0003	0.0848	-0.6336	-0.4872	
712792204.000000	10	1.0677	-0.0316	0.0901	-0.0000	0.0001	0.0002	0.1181	-0.5540	-0.4201	
712792204.000000	10	1.0677	-0.0316	0.0901	0.0003	-0.0005	0.0001	0.1271	-0.5397	-0.4212	
712792204.000000	10	1.0677	-0.0316	0.0901	0.0000	0.0004	-0.0003	0.0780	-0.6005	-0.4252	
712792204.000000	10	1.0677	-0.0315	0.0900	-0.0007	-0.0005	-0.0021	0.1199	-0.4042	-0.4338	
712792204.000000	10	1.0677	-0.0316	0.0901	-0.0004	-0.0001	-0.0009	0.1222	-0.5336	-0.4247	
712792204.000000	10	1.0677	-0.0316	0.0900	0.0001	0.0014	-0.0009	0.1293	-0.6030	-0.4904	
712792204.000000	10	1.0677	-0.0317	0.0901	-0.0004	-0.0017	0.0000	0.1887	-0.5208	-0.3887	
712792204.000000	10	1.0677	-0.0316	0.0901	-0.0000	-0.0002	0.0000	0.1112	-0.5254	-0.4197	
712792204.000000	10	1.0677	-0.0315	0.0901	-0.0002	-0.0000	-0.0007	0.1132	-0.5349	-0.4050	
712792204.000000	10	1.0677	-0.0315	0.0901	0.0008	-0.0001	0.0004	0.1080	-0.5117	-0.3917	
712792204.000000	10	1.0677	-0.0316	0.0901	0.0004	-0.0001	-0.0004	0.0926	-0.4536	-0.4052	
712792204.000000	10	1.0677	-0.0315	0.0900	-0.0006	0.0004	-0.0002	0.1192	-0.5211	-0.4153	
712792204.000000	10	1.0677	-0.0316	0.0901	0.0002	-0.0000	-0.0001	0.1148	-0.5381	-0.4099	
712792204.000000	10	1.0677	-0.0316	0.0901	0.0004	-0.0005	0.0010	0.1189	-0.5329	-0.4192	
712792204.000000	10	1.0677	-0.0316	0.0900	0.0003	-0.0002	-0.0007	0.1220	-0.6120	-0.4954	
712792204.000000	10	1.0678	-0.0316	0.0901	0.0006	0.0001	0.0013	0.1222	-0.5833	-0.4347	
712792204.000000	10	1.0678	-0.0316	0.0902	0.0010	0.0014	0.0007	0.1235	-0.5848	-0.4413	
712792204.000000	10	1.0677	-0.0315	0.0901	-0.0002	0.0007	0.0001	0.1208	-0.5067	-0.3885	
712792204.000000	10	1.0677	-0.0315	0.0902	0.0005	0.0004	0.0012	0.1086	-0.5349	-0.4082	
712792204.000000	10	1.0677	-0.0315	0.0902	-0.0003	0.0004	0.0013	0.0747	-0.5792	-0.4052	
712792204.000000	10	1.0677	-0.0315	0.0901	-0.0006	0.0003	0.0005	0.1412	-0.5524	-0.4261	
712792204.000000	10	1.0677	-0.0316	0.0900	-0.0001	-0.0005	-0.0005	0.1374	-0.5250	-0.4805	
712792204.000000	10	1.0677	-0.0315	0.0901	-0.0004	0.0004	0.0005	0.0664	-0.5556	-0.3791	
712792204.000000	10	1.0677	-0.0315	0.0902	0.0004	0.0002	0.0011	0.1231	-0.5651	-0.4351	
712792204.000000	10	1.0677	-0.0315	0.0901	-0.0008	0.0007	0.0010	0.0836	-0.5840	-0.4121	
712792204.000000	10	1.0677	-0.0315	0.0901	-0.0012	0.0006	-0.0004	0.0774	-0.5747	-0.4168	
712792204.000000	10	1.0677	-0.0315	0.0901	-0.0008	0.0004	-0.0011	0.1253	-0.5633	-0.4422	
712792204.000000	10	1.0677	-0.0316	0.0900	0.0000	-0.0007	-0.0008	0.1235	-0.5936	-0.4777	
712792204.000000	10	1.0677	-0.0316	0.0900	-0.0007	-0.0005	-0.0017	0.1110	-0.4687	-0.4271	
712792204.000000	10	1.0677	-0.0316	0.0901	0.0002	-0.0011	-0.0019	0.0809	-0.5517	-0.3716	
712792204.000000	10	1.0677	-0.0316	0.0901	0.0002	-0.0008	0.0003	0.1174	-0.5710	-0.4433	
712792204.000000	10	1.0677	-0.0315	0.0901	0.0006	0.0003	0.0018	0.1203	-0.6021	-0.4628	
712792204.000000	10	1.0677	-0.0316	0.0900	0.0004	-0.0008	-0.0012	0.1282	-0.6020	-0.4806	
712792204.000000	10	1.0676	-0.0315	0.0901	-0.0010	0.0001	-0.0007	0.0869	-0.5772	-0.4171	
712792204.000000	10	1.0677	-0.0315	0.0902	0.0008	0.0002	0.0006	0.1003	-0.5625	-0.4355	
712792204.000000	10	1.0677	-0.0316	0.0902	0.0008	-0.0003	0.0006	0.1225	-0.5579	-0.4375	
712792204.000000	10	1.0677	-0.0316	0.0901	0.0001	-0.0004	0.0002	0.1145	-0.5436	-0.4160	
712792204.000000	10	1.0677	-0.0316	0.0901	0.0001	-0.0000	0.0009	0.1386	-0.6093	-0.4831	
712792204.000000	10	1.0677	-0.0315	0.0901	-0.0001	0.0005	0.0003	0.1126	-0.5663	-0.4558	
712792204.000000	10	1.0677	-0.0316	0.0901	0.0002	0.0006	0.0008	0.1177	-0.5061	-0.4079	
712792204.000000	10	1.0678	-0.0315	0.0902	0.0006	0.0011	0.0007	0.1053	-0.5422	-0.3994	
712792204.000000	10	1.0676	-0.0315	0.0901	-0.0010	0.0000	-0.0004	0.0827	-0.5868	-0.4177	
712792204.000000	10	1.0677	-0.0316	0.0901	-0.0002	0.0004	0.0006	0.1230	-0.5453	-0.4225	
712792204.000000	10	1.0677	-0.0315	0.0902	0.0008	-0.0000	0.0006	0.1381	-0.5663	-0.4363	
712792204.000000	10	1.0677	-0.0315	0.0901	-0.0002	-0.0005	-0.0009	0.1151	-0.5394	-0.4194	
712792204.000000	10	1.0677	-0.0315	0.0902	-0.0000	0.0001	0.0001	0.1259	-0.5660	-0.4277	
712792204.000000	10	1.0677	-0.0316	0.0901	0.0000	-0.0000	-0.0001	0.1202	-0.5434	-0.4146	
712792204.000000	10	1.0677	-0.0315	0.0902	0.0004	0.0003	0.0005	0.1127	-0.5630	-0.4207	
712792204.000000	10	1.0677	-0.0315	0.0902	0.0005	0.0003	0.0015	0.1006	-0.5298	-0.3897	
712792204.000000	10	1.0677	-0.0315	0.0902	0.0001	0.0005	0.0007	0.1389	-0.5677	-0.4287	
712792204.000000	10	1.0677	-0.0315	0.0901	-0.0005	0.0000	-0.0009	0.1005	-0.5182	-0.3831	
712792204.000000	10	1.0677	-0.0315	0.0902	0.0012	0.0001	0.0009	0.1098	-0.5506	-0.4081	
712792204.000000	10	1.0677	-0.0315	0.0902	0.0002	0.0003	0.0010	0.1443	-0.5622	-0.4305	
712792204.000000	10	1.0677	-0.0315	0.0901	-0.0004	-0.0001	-0.0014	0.1461	-0.5922	-0.4892	
712792204.000000	10	1.0677	-0.0315	0.0901	-0.0001	-0.0000	-0.0001	0.1211	-0.5458	-0.4168	
712792204.000000	10	1.0677	-0.0316	0.0901	-0.0003	-0.0001	-0.0009	0.1167	-0.5421	-0.4174	
712792204.000000	10	1.0677	-0.0315	0.0902	0.0004	0.0002	0.0012	0.1213	-0.5537	-0.4396	
712792204.000000	10	1.0676	-0.0315	0.0901	-0.0012	0.0006	-0.0004	0.0858	-0.5541	-0.3955	
712792204.000000	10	1.0677	-0.0316	0.0901	-0.0000	-0.0008	-0.0017	0.1050	-0.4550	-0.4102	
712792204.000000	10	1.0677	-0.0317	0.0901	-0.0008	-0.0019	-0.0007	0.1943	-0.5224	-0.3939	
712792204.000000	10	1.0677	-0.0315	0.0902	0.0001	-0.0004	0.0008	0.1214	-0.5651	-0.4285	
712792204.000000	10	1.0677	-0.0315	0.0901	-0.0006	0.0001	-0.0012	0.1319	-0.5372	-0.4209	
712792204.000000	10	1.0677	-0.0315	0.0902	-0.0005	0.0005	0.0002	0.1110	-0.6090	-0.4295	
712792204.000000	10	1.0677	-0.0315	0.0902	0.0006	-0.0000	0.0014	0.1150	-0.5564	-0.4214	
712792204.000000	10	1.0677	-0.0315	0.0901	-0.0002	0.0000	0.0004	0.0788	-0.5879	-0.4424	
712792204.000000	10	1.0677	-0.0316	0.0901	-0.0000	-0.0000	-0.0000	0.1178	-0.5532	-0.4231	
712792204.000000	10	1.0677	-0.0315	0.0902	-0.0003	0.0000	-0.0002	0.1214	-0.5669	-0.4297	
712792204.000000	10	1.0677	-0.0315	0.0901	0.0002	-0.0006	-0.0002	0.0835	-0.5877	-0.4163	
712792204.000000	10	1.0677	-0.0315	0.0901	-0.0000	0.0003	0.0001	0.1000	-0.5617	-0.4348	
712792204.000000	10	1.0677	-0.0315	0.0901	0.0006	0.0014	-0.0002	0.1166	-0.5495	-0.4133	
712792204.000000	10	1.0677	-0.0316	0.0901	-0.0003	-0.0002	-0.0010	0.1203	-0.5449	-0.4202	
712792204.000000	10	1.0677	-0.0315	0.0901	-0.0004	-0.0001	-0.0003	0.1436	-0.5940	-0.4829	
712792204.000000	10	1.0677	-0.0315	0.0901	0.0002	-0.0002	-0.0009	0.1222	-0.5226	-0.3931	
712792204.000000	10	1.0677	-0.0315	0.0901	-0.0005	0.0003	-0.0005	0.1361	-0.6203	-0.4844	
712792204.000000	10	1.0677	-0.0315	0.0901	0.0004	0.0002	-0.0007	0.1116	-0.5710	-0.4621	
712792204.000000	10	1.0676	-0.0315	0.0901	-0.0005	0.0006	0.0004	0.0957	-0.5755	-0.4080	
712793045.000000	10	1.0677	-0.0315	0.0900	-0.0000	0.0003	-0.0015	0.0972	-0.5040	-0.3886	
712793045.000000	10	1.0677	-0.0315	0.0901	0.0010	0.0005	0.0001	0.1218	-0.5576	-0.4309	
712793045.000000	10	1.0677	-0.0315	0.0901	-0.0004	0.0006	0.0005	0.1106	-0.5048	-0.3920	
712793045.000000	10	1.0677	-0.0315	0.0901	-0.0007	0.0000	-0.0005	0.0960	-0.6529	-0.4901	
712793045.000000	10	1.0677	-0.0315	0.0901	0.0002	0.0005	-0.0000	0.0920	-0.5361	-0.4164	
712793045.000000	10	1.0677	-0.0316	0.0901	0.0002	-0.0002	-0.0000	0.1197	-0.5925	-0.4833	
712793045.000000	10	1.0677	-0.0315	0.0901	0.0002	-0.0001	0.0004	0.1123	-0.5879	-0.4661	
712793045.000000	10	1.0677	-0.0315	0.0901	0.0000	-0.0003	-0.0005	0.1435	-0.5384	-0.4248	
712793045.000000	10	1.0677	-0.0316	0.0901	0.0000	-0.0003	0.0004	0.1153	-0.5491	-0.4066	
712793045.000000	10	1.0677	-0.0315	0.0901	0.0003	0.0001	-0.0001	0.0800	-0.5680	-0.4104	
712793045.000000	10	1.0676	-0.0315	0.0901	-0.0008	0.0001	0.0011	0.0907	-0.5584	-0.3924	
712793045.000000	10	1.0677	-0.0317	0.0901	-0.0007	-0.0021	-0.0002	0.1891	-0.5232	-0.3934	
712793045.000000	10	1.0677	-0.0315	0.0902	0.0008	-0.0001	0.0007	0.0968	-0.5362	-0.3958	
712793045.000000	10	1.0677	-0.0315	0.0901	0.0005	0.0006	0.0005	0.1147	-0.5187	-0.3946	
712793045.000000	10	1.0677	-0.0315	0.0901	0.0001	-0.0002	0.0004	0.1289	-0.6157	-0.4986	
712793045.000000	10	1.0677	-0.0315	0.0901	-0.0000	0.0002	0.0004	0.1408	-0.5427	-0.4203	
712793045.000000	10	1.0677	-0.0315	0.0902	0.0001	-0.0001	0.0002	0.1427	-0.5636	-0.4329	
712793045.000000	10	1.0677	-0.0315	0.0901	0.0004	0.0005	0.0007	0.1397	-0.5411	-0.4319	
712793045.000000	10	1.0677	-0.0315	0.0901	-0.0004	0.0009	0.0003	0.1087	-0.5164	-0.3914	
712793045.000000	10	1.0677	-0.0315	0.0901	0.0002	0.0000	0.0000	0.1194	-0.5137	-0.3857	
712793045.000000	10	1.0676	-0.0317	0.0901	-0.0003	-0.0018	-0.0003	0.1412	-0.5637	-0.3582	
712793045.000000	10	1.0677	-0.0315	0.0901	-0.0000	0.0017	0.0005	0.0733	-0.5514	-0.3920	
712793045.000000	10	1.0676	-0.0315	0.0901	-0.0013	-0.0003	-0.0012	0.0895	-0.6243	-0.4708	
712793045.000000	10	1.0677	-0.0316	0.0901	-0.0000	-0.0008	-0.0003	0.1222	-0.5471	-0.4111	
712793045.000000	10	1.0677	-0.0315	0.0901	-0.0003	0.0002	-0.0003	0.1290	-0.5267	-0.4090	
712793045.000000	10	1.0677	-0.0315	0.0901	0.0005	0.0002	-0.0003	0.1017	-0.5771	-0.4585	
712793045.000000	10	1.0677	-0.0316	0.0901	-0.0003	-0.0006	-0.0009	0.1135	-0.5509	-0.4180	
712793045.000000	10	1.0677	-0.0315	0.0901	-0.0004	-0.0005	-0.0006	0.1460	-0.5526	-0.4224	
712793045.000000	10	1.0677	-0.0315	0.0902	0.0006	-0.0007	0.0006	0.1264	-0.5706	-0.4288	
712793045.000000	10	1.0677	-0.0315	0.0902	0.0001	-0.0005	0.0007	0.0863	-0.6413	-0.4702	
712793045.000000	10	1.0678	-0.0315	0.0902	0.0016	0.0013	0.0010	0.1155	-0.5523	-0.4304	
712793045.000000	10	1.0677	-0.0316	0.0900	0.0001	-0.0005	-0.0012	0.1280	-0.6020	-0.4658	
712793045.000000	10	1.0677	-0.0315	0.0902	0.0011	-0.0001	0.0012	0.1125	-0.5690	-0.4348	
712793045.000000	10	1.0676	-0.0315	0.0901	-0.0007	0.0006	0.0003	0.1096	-0.5780	-0.4235	
712793045.000000	10	1.0677	-0.0315	0.0902	0.0007	-0.0001	0.0010	0.1143	-0.5384	-0.4038	
712793045.000000	10	1.0677	-0.0315	0.0902	-0.0003	-0.0002	0.0015	0.0881	-0.6197	-0.4342	
712793045.000000	10	1.0677	-0.0316	0.0900	-0.0003	-0.0000	-0.0011	0.1154	-0.5317	-0.4790	
712793045.000000	10	1.0677	-0.0315	0.0902	0.0005	-0.0000	0.0009	0.1216	-0.5635	-0.4359	
712793045.000000	10	1.0677	-0.0315	0.0901	0.0001	0.0002	-0.0002	0.1235	-0.5499	-0.4239	
712793045.000000	10	1.0677	-0.0316	0.0901	0.0004	-0.0002	-0.0009	0.1172	-0.5490	-0.4412	
712793045.000000	10	1.0677	-0.0316	0.0900	-0.0006	-0.0000	-0.0017	0.1074	-0.4682	-0.4268	
712793045.000000	10	1.0677	-0.0315	0.0901	0.0003	0.0003	0.0003	0.1127	-0.5620	-0.4403	
712793045.000000	10	1.0676	-0.0315	0.0901	-0.0010	0.0000	-0.0013	0.0899	-0.6344	-0.4755	
712793045.000000	10	1.0677	-0.0316	0.0901	0.0011	-0.0006	-0.0002	0.1267	-0.5561	-0.4403	
712793045.000000	10	1.0677	-0.0315	0.0902	-0.0002	-0.0002	-0.0001	0.1269	-0.5764	-0.4373	
712793045.000000	10	1.0677	-0.0317	0.0902	0.0004	-0.0016	-0.0003	0.1881	-0.5540	-0.4128	
712793045.000000	10	1.0677	-0.0315	0.0901	0.0006	0.0003	0.0010	0.1139	-0.5409	-0.4198	
712793045.000000	10	1.0677	-0.0315	0.0902	0.0001	0.0002	0.0001	0.1301	-0.5626	-0.4291	
712793045.000000	10	1.0677	-0.0315	0.0901	-0.0006	-0.0001	-0.0008	0.1318	-0.5327	-0.4174	
712793045.000000	10	1.0677	-0.0315	0.0902	-0.0001	0.0002	0.0008	0.1259	-0.5686	-0.4316	
712793045.000000	10	1.0677	-0.0315	0.0901	0.0000	0.0000	0.0005	0.1198	-0.5513	-0.4156	
712793045.000000	10	1.0677	-0.0316	0.0901	-0.0001	-0.0003	0.0001	0.1200	-0.5364	-0.4237	
712793045.000000	10	1.0677	-0.0316	0.0900	0.0008	-0.0003	-0.0002	0.1206	-0.6174	-0.4842	
712793045.000000	10	1.0678	-0.0315	0.0902	0.0004	0.0005	0.0011	0.1041	-0.5471	-0.4143	
712793045.000000	10	1.0677	-0.0315	0.0902	-0.0001	0.0003	0.0001	0.1346	-0.5314	-0.4068	
712793045.000000	10	1.0677	-0.0315	0.0901	-0.0004	0.0016	-0.0013	0.1346	-0.5889	-0.4837	
712793045.000000	10	1.0677	-0.0316	0.0901	0.0001	-0.0003	-0.0001	0.1225	-0.5510	-0.4282	
712793045.000000	10	1.0677	-0.0316	0.0900	-0.0006	-0.0005	-0.0015	0.1250	-0.5924	-0.4771	
712793045.000000	10	1.0677	-0.0316	0.0900	0.0002	-0.0005	-0.0006	0.1222	-0.5994	-0.4789	
712793045.000000	10	1.0678	-0.0316	0.0900	0.0003	-0.0003	-0.0013	0.1326	-0.5343	-0.4317	
712793045.000000	10	1.0677	-0.0316	0.0900	-0.0003	-0.0001	-0.0005	0.1231	-0.5970	-0.4735	
712793045.000000	10	1.0677	-0.0315	0.0901	-0.0001	0.0008	0.0005	0.1214	-0.5253	-0.3937	
712793045.000000	10	1.0677	-0.0315	0.0901	0.0003	0.0007	0.0010	0.1463	-0.5677	-0.4353	
712793045.000000	10	1.0678	-0.0316	0.0902	0.0001	-0.0004	-0.0000	0.1160	-0.5526	-0.4055	
712793045.000000	10	1.0677	-0.0315	0.0901	-0.0008	-0.0002	-0.0008	0.0743	-0.5867	-0.4138	
712793045.000000	10	1.0676	-0.0315	0.0901	-0.0007	0.0003	0.0005	0.1001	-0.6009	-0.4255	
712793045.000000	10	1.0677	-0.0315	0.0901	-0.0006	0.0004	0.0001	0.1364	-0.5434	-0.4226	
712793045.000000	10	1.0677	-0.0315	0.0901	-0.0003	0.0006	0.0009	0.0711	-0.5914	-0.4208	
712793045.000000	10	1.0677	-0.0315	0.0901	-0.0002	0.0003	0.0006	0.1101	-0.5537	-0.4114	
712793045.000000	10	1.0677	-0.0315	0.0901	-0.0011	0.0005	0.0007	0.0895	-0.5838	-0.4242	
712793045.000000	10	1.0677	-0.0315	0.0901	0.0001	0.0004	0.0006	0.1352	-0.5372	-0.4236	
712793045.000000	10	1.0677	-0.0315	0.0901	0.0001	-0.0006	-0.0003	0.1260	-0.5377	-0.4259	
712793045.000000	10	1.0677	-0.0316	0.0900	-0.0007	-0.0007	-0.0011	0.1115	-0.4718	-0.4272	
712793045.000000	10	1.0677	-0.0316	0.0902	-0.0005	-0.0000	-0.0000	0.1207	-0.5712	-0.4333	
712793045.000000	10	1.0677	-0.0316	0.0900	0.0002	-0.0002	-0.0009	0.1275	-0.5962	-0.4767	
712793045.000000	10	1.0677	-0.0315	0.0901	0.0003	-0.0001	-0.0005	0.0809	-0.6436	-0.4988	
712793045.000000	10	1.0677	-0.0315	0.0901	-0.0003	0.0001	0.0002	0.0823	-0.5731	-0.4124	
712793045.000000	10	1.0677	-0.0315	0.0901	0.0005	-0.0000	-0.0003	0.1351	-0.5368	-0.4148	
712793045.000000	10	1.0677	-0.0315	0.0902	-0.0002	0.0009	0.0015	0.0668	-0.5729	-0.3963	
712793045.000000	10	1.0676	-0.0315	0.0900	-0.0001	0.0003	-0.0009	0.1448	-0.5903	-0.4773	
712793045.000000	10	1.0676	-0.0316	0.0901	-0.0008	-0.0010	0.0006	0.1707	-0.5618	-0.3802	
712793045.000000	10	1.0677	-0.0316	0.0901	-0.0005	-0.0005	-0.0002	0.0657	-0.6019	-0.3849	
712793045.000000	10	1.0677	-0.0316	0.0901	0.0006	-0.0002	0.0004	0.1089	-0.5630	-0.4346	
712793045.000000	10	1.0677	-0.0316	0.0901	-0.0007	-0.0000	-0.0010	0.0692	-0.6194	-0.4488	
712793045.000000	10	1.0677	-0.0315	0.0901	0.0005	0.0007	0.0009	0.0929	-0.5138	-0.3989	
712793045.000000	10	1.0677	-0.0315	0.0901	0.0003	0.0001	0.0001	0.1253	-0.4190	-0.4520	
712793045.000000	10	1.0677	-0.0315	0.0900	0.0004	-0.0001	-0.0010	0.1018	-0.3644	-0.4569	
712793045.000000	10	1.0677	-0.0315	0.0901	-0.0004	0.0005	0.0005	0.0573	-0.5459	-0.3905	
712793045.000000	10	1.0677	-0.0315	0.0901	-0.0002	-0.0006	-0.0008	0.0702	-0.5527	-0.3908	
712793045.000000	10	1.0677	-0.0316	0.0901	0.0007	-0.0009	0.0011	0.1248	-0.4964	-0.3591	
712793045.000000	10	1.0676	-0.0315	0.0901	0.0002	0.0007	-0.0008	0.0951	-0.6416	-0.4764	
712793045.000000	10	1.0677	-0.0315	0.0901	0.0003	0.0006	0.0002	0.1308	-0.5490	-0.4227	
712793045.000000	10	1.0677	-0.0315	0.0901	-0.0002	0.0004	0.0004	0.1120	-0.5045	-0.3920	
712793045.000000	10	1.0677	-0.0315	0.0902	0.0004	0.0003	0.0010	0.1445	-0.5674	-0.4398	
712793045.000000	10	1.0677	-0.0316	0.0901	-0.0002	-0.0007	-0.0004	0.1223	-0.5389	-0.4236	
712793045.000000	10	1.0677	-0.0315	0.0902	0.0002	-0.0002	0.0012	0.1440	-0.5747	-0.4322	
712793045.000000	10	1.0677	-0.0316	0.0901	0.0001	-0.0002	0.0007	0.1089	-0.5282	-0.4092	
712793045.000000	10	1.0677	-0.0315	0.0902	0.0009	-0.0008	0.0006	0.1131	-0.5373	-0.4037	
712793045.000000	10	1.0677	-0.0315	0.0901	0.0003	-0.0004	-0.0007	0.1141	-0.5424	-0.4176	
712793045.000000	10	1.0677	-0.0315	0.0901	0.0002	0.0008	0.0001	0.1190	-0.5545	-0.4283	
712793045.000000	10	1.0677	-0.0316	0.0901	0.0007	-0.0002	0.0002	0.1171	-0.5390	-0.4081	
712793887.000000	10	1.0677	-0.0316	0.0901	0.0003	-0.0002	0.0003	0.1340	-0.6325	-0.4853	
712793887.000000	10	1.0677	-0.0315	0.0901	-0.0005	0.0007	0.0004	0.0628	-0.5532	-0.3913	
712793887.000000	10	1.0677	-0.0315	0.0901	-0.0001	-0.0001	-0.0009	0.1385	-0.5445	-0.4111	
712793887.000000	10	1.0677	-0.0315	0.0901	0.0000	0.0003	0.0003	0.1266	-0.5196	-0.3877	
712793887.000000	10	1.0676	-0.0315	0.0901	-0.0007	0.0001	-0.0008	0.0926	-0.5808	-0.4107	
712793887.000000	10	1.0677	-0.0315	0.0902	0.0005	0.0005	0.0009	0.1291	-0.5492	-0.4376	
712793887.000000	10	1.0676	-0.0315	0.0901	-0.0014	0.0003	-0.0009	0.0913	-0.5785	-0.4124	
712793887.000000	10	1.0677	-0.0315	0.0900	-0.0003	0.0011	-0.0008	0.0772	-0.5784	-0.4339	
712793887.000000	10	1.0677	-0.0316	0.0901	-0.0003	-0.0007	-0.0006	0.1204	-0.5523	-0.4161	
712793887.000000	10	1.0677	-0.0315	0.0901	-0.0000	0.0000	-0.0001	0.1212	-0.5493	-0.4253	
712793887.000000	10	1.0677	-0.0316	0.0901	-0.0000	-0.0002	-0.0005	0.0621	-0.5291	-0.3462	
712793887.000000	10	1.0677	-0.0315	0.0902	0.0004	0.0001	0.0009	0.0516	-0.5796	-0.4066	
712793887.000000	10	1.0677	-0.0315	0.0901	0.0000	0.0003	0.0003	0.0992	-0.5240	-0.3998	
712793887.000000	10	1.0677	-0.0316	0.0901	-0.0001	-0.0003	-0.0001	0.1211	-0.5409	-0.4120	
712793887.000000	10	1.0677	-0.0316	0.0901	0.0007	-0.0006	-0.0003	0.1163	-0.5435	-0.4157	
712793887.000000	10	1.0677	-0.0317	0.0901	-0.0008	-0.0017	-0.0006	0.1901	-0.5212	-0.3936	
712793887.000000	10	1.0677	-0.0315	0.0901	0.0010	-0.0003	0.0002	0.1309	-0.6293	-0.4968	
712793887.000000	10	1.0677	-0.0315	0.0902	0.0007	-0.0010	0.0017	0.1147	-0.5653	-0.4283	
712793887.000000	10	1.0677	-0.0315	0.0901	0.0001	0.0005	0.0006	0.1376	-0.5940	-0.4649	
712793887.000000	10	1.0677	-0.0316	0.0902	-0.0001	-0.0012	0.0011	0.1912	-0.5483	-0.4076	
712793887.000000	10	1.0677	-0.0315	0.0900	-0.0002	0.0005	-0.0004	0.1250	-0.5269	-0.4099	
712793887.000000	10	1.0677	-0.0316	0.0901	0.0001	-0.0010	-0.0015	0.1172	-0.5363	-0.4115	
712793887.000000	10	1.0677	-0.0315	0.0902	0.0005	-0.0002	0.0006	0.0973	-0.5498	-0.3968	
712793887.000000	10	1.0677	-0.0315	0.0901	0.0002	0.0004	0.0003	0.1058	-0.5130	-0.3986	
712793887.000000	10	1.0677	-0.0315	0.0902	0.0004	0.0002	0.0009	0.1441	-0.5661	-0.4504	
712793887.000000	10	1.0677	-0.0316	0.0901	0.0004	0.0011	-0.0002	0.1186	-0.5461	-0.4116	
712793887.000000	10	1.0677	-0.0316	0.0901	-0.0000	-0.0003	-0.0006	0.1080	-0.5478	-0.4103	
712793887.000000	10	1.0677	-0.0315	0.0901	-0.0007	0.0000	-0.0013	0.1491	-0.5972	-0.4805	
712793887.000000	10	1.0677	-0.0316	0.0901	0.0000	-0.0005	-0.0006	0.1141	-0.5416	-0.4093	
712793887.000000	10	1.0677	-0.0315	0.0900	-0.0002	0.0012	-0.0019	0.1164	-0.4755	-0.4999	
712793887.000000	10	1.0677	-0.0315	0.0900	-0.0002	-0.0002	0.0001	0.1469	-0.5974	-0.4711	
712793887.000000	10	1.0677	-0.0315	0.0901	0.0001	0.0003	-0.0002	0.1285	-0.5219	-0.4190	
712793887.000000	10	1.0678	-0.0316	0.0902	0.0003	-0.0005	0.0001	0.1071	-0.5476	-0.4071	
712793887.000000	10	1.0677	-0.0315	0.0902	-0.0005	0.0002	0.0009	0.0790	-0.5921	-0.4240	
712793887.000000	10	1.0677	-0.0317	0.0901	-0.0008	-0.0014	-0.0007	0.1962	-0.5192	-0.4030	
712793887.000000	10	1.0677	-0.0315	0.0901	-0.0001	0.0003	0.0001	0.1398	-0.5406	-0.4177	
712793887.000000	10	1.0677	-0.0315	0.0901	0.0001	0.0003	0.0004	0.1274	-0.6251	-0.4982	
712793887.000000	10	1.0677	-0.0315	0.0901	0.0005	-0.0000	0.0002	0.1150	-0.5545	-0.4385	
712793887.000000	10	1.0677	-0.0315	0.0901	-0.0006	0.0003	0.0003	0.0808	-0.5800	-0.4087	
712793887.000000	10	1.0677	-0.0316	0.0901	0.0002	-0.0001	0.0009	0.1187	-0.5337	-0.4201	
712793887.000000	10	1.0677	-0.0315	0.0902	0.0008	0.0000	0.0017	0.1155	-0.5284	-0.4052	
712793887.000000	10	1.0677	-0.0315	0.0901	-0.0001	-0.0002	0.0002	0.1158	-0.5471	-0.4053	
712793887.000000	10	1.0677	-0.0315	0.0902	-0.0004	0.0005	0.0001	0.0903	-0.5480	-0.3951	
712793887.000000	10	1.0677	-0.0316	0.0900	0.0002	-0.0007	-0.0018	0.1301	-0.6019	-0.4787	
712793887.000000	10	1.0677	-0.0315	0.0901	0.0008	0.0016	0.0005	0.1225	-0.5988	-0.4647	
712793887.000000	10	1.0677	-0.0316	0.0901	0.0004	-0.0004	-0.0001	0.1213	-0.5654	-0.4353	
712793887.000000	10	1.0677	-0.0315	0.0902	0.0002	0.0001	0.0010	0.1043	-0.5177	-0.3787	
712793887.000000	10	1.0677	-0.0315	0.0902	0.0000	0.0002	0.0013	0.1450	-0.5645	-0.4327	
712793887.000000	10	1.0677	-0.0316	0.0901	0.0008	-0.0006	-0.0004	0.1195	-0.5561	-0.4334	
712793887.000000	10	1.0677	-0.0316	0.0900	-0.0003	-0.0001	-0.0006	0.1281	-0.5915	-0.4791	
712793887.000000	10	1.0677	-0.0315	0.0902	-0.0000	0.0001	-0.0003	0.1189	-0.5599	-0.4324	
712793887.000000	10	1.0677	-0.0317	0.0901	-0.0004	-0.0014	0.0002	0.1894	-0.5193	-0.3983	
712793887.000000	10	1.0677	-0.0316	0.0901	-0.0004	-0.0005	-0.0012	0.1222	-0.5287	-0.4122	
712793887.000000	10	1.0677	-0.0317	0.0901	0.0002	-0.0014	0.0011	0.1859	-0.5059	-0.3897	
712793887.000000	10	1.0677	-0.0316	0.0901	-0.0006	-0.0004	-0.0005	0.0764	-0.6023	-0.4267	
712793887.000000	10	1.0677	-0.0317	0.0901	-0.0008	-0.0011	-0.0002	0.2047	-0.5795	-0.4547	
712793887.000000	10	1.0677	-0.0315	0.0901	-0.0005	-0.0001	-0.0012	0.1134	-0.5463	-0.4127	
712793887.000000	10	1.0677	-0.0316	0.0901	0.0000	-0.0006	-0.0012	0.1142	-0.5581	-0.4250	
712793887.000000	10	1.0677	-0.0316	0.0901	-0.0005	0.0001	-0.0002	0.1269	-0.5981	-0.4662	
712793887.000000	10	1.0677	-0.0316	0.0901	0.0003	0.0001	0.0004	0.1094	-0.5378	-0.4118	
712793887.000000	10	1.0677	-0.0316	0.0902	-0.0004	-0.0003	0.0004	0.1470	-0.5850	-0.4209	
712793887.000000	10	1.0677	-0.0315	0.0901	0.0005	0.0014	0.0002	0.1315	-0.6248	-0.4943	
712793887.000000	10	1.0677	-0.0315	0.0901	0.0003	0.0002	0.0005	0.1388	-0.6137	-0.4856	
712793887.000000	10	1.0677	-0.0315	0.0902	-0.0004	0.0018	0.0004	0.1046	-0.6641	-0.4956	
712793887.000000	10	1.0677	-0.0316	0.0901	0.0005	-0.0001	0.0002	0.1334	-0.6182	-0.4879	
712793887.000000	10	1.0677	-0.0316	0.0901	0.0008	0.0011	0.0002	0.1215	-0.5415	-0.4315	
712793887.000000	10	1.0677	-0.0315	0.0901	-0.0004	0.0002	0.0007	0.0991	-0.6634	-0.4833	
712793887.000000	10	1.0677	-0.0316	0.0902	0.0001	0.0004	0.0012	0.1273	-0.5601	-0.4332	
712793887.000000	10	1.0677	-0.0316	0.0901	0.0001	0.0000	0.0005	0.1158	-0.5478	-0.4195	
712793887.000000	10	1.0677	-0.0316	0.0901	-0.0000	-0.0007	-0.0003	0.1267	-0.6375	-0.4841	
712793887.000000	10	1.0677	-0.0316	0.0900	-0.0002	-0.0003	-0.0019	0.1300	-0.5936	-0.4742	
712793887.000000	10	1.0677	-0.0315	0.0901	0.0000	0.0004	-0.0002	0.0939	-0.5076	-0.3888	
712793887.000000	10	1.0677	-0.0315	0.0902	0.0002	0.0005	0.0007	0.0985	-0.5403	-0.4017	
712793887.000000	10	1.0677	-0.0316	0.0901	0.0005	-0.0007	-0.0012	0.1147	-0.5480	-0.4270	
712793887.000000	10	1.0677	-0.0316	0.0901	-0.0006	0.0001	-0.0004	0.0808	-0.5997	-0.4277	
712793887.000000	10	1.0677	-0.0315	0.0901	-0.0002	0.0003	0.0002	0.1144	-0.5081	-0.3906	
712793887.000000	10	1.0677	-0.0316	0.0901	0.0009	-0.0003	-0.0006	0.1127	-0.5275	-0.4070	
712793887.000000	10	1.0677	-0.0316	0.0901	-0.0004	-0.0002	-0.0004	0.1199	-0.5620	-0.4220	
712793887.000000	10	1.0677	-0.0316	0.0901	0.0001	0.0001	0.0002	0.1365	-0.6234	-0.4900	
712793887.000000	10	1.0677	-0.0316	0.0900	0.0001	0.0002	-0.0003	0.1294	-0.6053	-0.4744	
712793887.000000	10	1.0677	-0.0314	0.0901	0.0007	0.0021	0.0007	0.1002	-0.5120	-0.3974	
712793887.000000	10	1.0677	-0.0315	0.0902	0.0002	-0.0003	0.0006	0.1159	-0.5652	-0.4243	
712793887.000000	10	1.0677	-0.0316	0.0901	-0.0003	-0.0005	-0.0008	0.1318	-0.6243	-0.4821	
712793887.000000	10	1.0677	-0.0316	0.0902	-0.0008	-0.0003	0.0017	0.1607	-0.5952	-0.4164	
712793887.000000	10	1.0678	-0.0315	0.0902	0.0009	0.0002	0.0011	0.1137	-0.5396	-0.4102	
712793887.000000	10	1.0677	-0.0315	0.0901	-0.0005	0.0003	0.0003	0.0649	-0.5569	-0.3857	
712793887.000000	10	1.0677	-0.0315	0.0902	-0.0000	0.0002	0.0009	0.1224	-0.5631	-0.4289	
712793887.000000	10	1.0677	-0.0316	0.0901	0.0005	0.0001	-0.0008	0.1208	-0.5536	-0.4290	
712793887.000000	10	1.0677	-0.0316	0.0901	-0.0002	0.0000	-0.0004	0.1166	-0.5562	-0.4213	
712793887.000000	10	1.0677	-0.0316	0.0901	-0.0005	0.0005	0.0003	0.0905	-0.6504	-0.4961	
712793887.000000	10	1.0677	-0.0316	0.0901	-0.0008	-0.0018	0.0000	0.0767	-0.5931	-0.4230	
712793887.000000	10	1.0677	-0.0316	0.0901	-0.0004	-0.0001	-0.0008	0.1132	-0.5365	-0.4067	
712793887.000000	10	1.0677	-0.0314	0.0901	0.0004	0.0014	-0.0005	0.1104	-0.5372	-0.4161	
712793887.000000	10	1.0677	-0.0315	0.0902	0.0007	0.0009	-0.0002	0.0644	-0.5959	-0.4156	
712793887.000000	10	1.0677	-0.0315	0.0902	-0.0005	0.0006	0.0001	0.1200	-0.5387	-0.4075	
712793887.000000	10	1.0677	-0.0317	0.0901	-0.0002	-0.0017	-0.0004	0.1904	-0.5240	-0.3977	
712793887.000000	10	1.0677	-0.0315	0.0901	-0.0000	-0.0000	-0.0003	0.1113	-0.5885	-0.4537	
712793887.000000	10	1.0677	-0.0315	0.0901	-0.0004	0.0002	0.0001	0.1110	-0.5328	-0.4122	
712793887.000000	10	1.0677	-0.0316	0.0901	0.0001	-0.0000	0.0001	0.1138	-0.5482	-0.4140	
712793887.000000	10	1.0677	-0.0316	0.0901	0.0005	-0.0003	0.0000	0.0804	-0.5562	-0.3817	
712793887.000000	10	1.0677	-0.0315	0.0900	0.0004	0.0002	-0.0007	0.1300	-0.5919	-0.4732	
712794728.000000	10	1.0677	-0.0315	0.0902	0.0003	0.0006	0.0013	0.1061	-0.5381	-0.4160	
712794728.000000	10	1.0677	-0.0315	0.0901	-0.0001	-0.0011	0.0006	0.1325	-0.6103	-0.4917	
712794728.000000	10	1.0677	-0.0316	0.0901	-0.0002	-0.0003	-0.0014	0.1170	-0.5424	-0.4169	
712794728.000000	10	1.0677	-0.0316	0.0900	-0.0006	-0.0007	-0.0016	0.1556	-0.5984	-0.4704	
712794728.000000	10	1.0677	-0.0316	0.0901	0.0005	0.0013	-0.0002	0.1240	-0.5374	-0.4120	
712794728.000000	10	1.0677	-0.0316	0.0901	-0.0003	-0.0002	-0.0004	0.1344	-0.6276	-0.4820	
712794728.000000	10	1.0677	-0.0315	0.0902	0.0005	0.0002	0.0009	0.1159	-0.5575	-0.4198	
712794728.000000	10	1.0677	-0.0315	0.0902	0.0004	0.0007	0.0012	0.0984	-0.5316	-0.4055	
712794728.000000	10	1.0677	-0.0315	0.0901	-0.0007	0.0006	0.0007	0.0876	-0.5881	-0.4073	
712794728.000000	10	1.0677	-0.0316	0.0900	-0.0001	-0.0003	0.0000	0.1329	-0.5878	-0.4725	
712794728.000000	10	1.0677	-0.0315	0.0901	-0.0006	-0.0001	-0.0016	0.1262	-0.5788	-0.4571	
712794728.000000	10	1.0677	-0.0316	0.0900	-0.0007	-0.0004	-0.0011	0.1104	-0.4595	-0.4056	
712794728.000000	10	1.0677	-0.0315	0.0901	-0.0002	0.0006	0.0008	0.0987	-0.6564	-0.4833	
712794728.000000	10	1.0677	-0.0315	0.0902	0.0007	0.0009	0.0013	0.0795	-0.6003	-0.4520	
712794728.000000	10	1.0677	-0.0315	0.0901	0.0002	0.0003	0.0002	0.1155	-0.5127	-0.4040	
712794728.000000	10	1.0677	-0.0315	0.0901	0.0002	0.0004	0.0003	0.1282	-0.6141	-0.4865	
712794728.000000	10	1.0677	-0.0315	0.0901	-0.0004	-0.0002	-0.0012	0.1081	-0.5922	-0.4734	
712794728.000000	10	1.0677	-0.0315	0.0901	-0.0003	-0.0005	-0.0012	0.1085	-0.5433	-0.4199	
712794728.000000	10	1.0677	-0.0317	0.0901	0.0003	-0.0016	-0.0002	0.1912	-0.5203	-0.3982	
712794728.000000	10	1.0677	-0.0316	0.0901	0.0002	0.0001	0.0006	0.1184	-0.5470	-0.4160	
712794728.000000	10	1.0677	-0.0315	0.0902	0.0005	-0.0005	0.0012	0.1200	-0.5682	-0.4374	
712794728.000000	10	1.0676	-0.0315	0.0901	-0.0003	0.0002	0.0004	0.0908	-0.6336	-0.4682	
712794728.000000	10	1.0677	-0.0317	0.0901	0.0003	-0.0017	-0.0003	0.1739	-0.4870	-0.3729	
712794728.000000	10	1.0677	-0.0315	0.0902	-0.0001	-0.0007	0.0001	0.1187	-0.5666	-0.4290	
712794728.000000	10	1.0677	-0.0316	0.0901	-0.0003	-0.0003	-0.0003	0.1240	-0.5443	-0.4085	
712794728.000000	10	1.0677	-0.0316	0.0900	-0.0003	-0.0005	-0.0012	0.1322	-0.5954	-0.4764	
712794728.000000	10	1.0677	-0.0315	0.0901	-0.0007	0.0002	0.0006	0.0764	-0.5750	-0.4090	
712794728.000000	10	1.0677	-0.0315	0.0901	-0.0001	0.0003	0.0005	0.1431	-0.6136	-0.4909	
712794728.000000	10	1.0677	-0.0316	0.0901	0.0004	0.0013	-0.0003	0.1209	-0.5335	-0.4234	
712794728.000000	10	1.0677	-0.0316	0.0901	0.0000	0.0000	-0.0001	0.1151	-0.5484	-0.4171	
712794728.000000	10	1.0677	-0.0315	0.0902	-0.0004	0.0004	0.0005	0.0922	-0.6113	-0.4308	
712794728.000000	10	1.0677	-0.0315	0.0902	0.0009	-0.0001	0.0009	0.1177	-0.5693	-0.4239	
712794728.000000	10	1.0678	-0.0315	0.0901	0.0008	0.0013	0.0003	0.1304	-0.5646	-0.4479	
712794728.000000	10	1.0676	-0.0316	0.0901	-0.0013	-0.0013	-0.0008	0.1747	-0.6149	-0.4519	
712794728.000000	10	1.0677	-0.0316	0.0901	-0.0003	-0.0007	0.0006	0.1719	-0.4980	-0.3697	
712794728.000000	10	1.0676	-0.0316	0.0901	-0.0008	-0.0010	0.0011	0.1583	-0.5563	-0.3936	
712794728.000000	10	1.0677	-0.0315	0.0900	0.0005	-0.0002	-0.0011	0.0894	-0.3789	-0.3938	
712794728.000000	10	1.0677	-0.0315	0.0902	0.0003	-0.0003	0.0004	0.1156	-0.5619	-0.4233	
712794728.000000	10	1.0677	-0.0316	0.0901	-0.0002	-0.0001	0.0002	0.1253	-0.5469	-0.4179	
712794728.000000	10	1.0677	-0.0316	0.0901	-0.0002	-0.0001	0.0002	0.1238	-0.5467	-0.4187	
712794728.000000	10	1.0676	-0.0316	0.0902	-0.0005	-0.0015	-0.0005	0.1673	-0.6362	-0.4598	
712794728.000000	10	1.0677	-0.0315	0.0901	0.0001	0.0004	-0.0001	0.1040	-0.5929	-0.4498	
712794728.000000	10	1.0677	-0.0315	0.0901	-0.0006	-0.0000	-0.0004	0.1095	-0.5196	-0.3890	
712794728.000000	10	1.0677	-0.0316	0.0901	0.0008	-0.0000	-0.0001	0.1736	-0.4071	-0.4160	
712794728.000000	10	1.0677	-0.0316	0.0901	0.0005	0.0007	-0.0006	0.1152	-0.5517	-0.4184	
712794728.000000	10	1.0677	-0.0316	0.0901	0.0011	0.0011	-0.0003	0.1048	-0.5161	-0.3745	
712794728.000000	10	1.0677	-0.0316	0.0901	0.0001	-0.0005	0.0010	0.1222	-0.5641	-0.4110	
712794728.000000	10	1.0677	-0.0316	0.0900	-0.0002	-0.0006	-0.0015	0.1237	-0.6091	-0.4794	
712794728.000000	10	1.0677	-0.0316	0.0901	0.0004	-0.0002	-0.0003	0.1235	-0.5645	-0.4286	
712794728.000000	10	1.0677	-0.0315	0.0902	0.0002	0.0001	0.0007	0.1266	-0.5573	-0.4298	
712794728.000000	10	1.0677	-0.0316	0.0901	0.0006	0.0008	-0.0009	0.1187	-0.5358	-0.4174	
712794728.000000	10	1.0677	-0.0315	0.0901	-0.0009	-0.0002	-0.0008	0.0822	-0.6389	-0.4676	
712794728.000000	10	1.0677	-0.0316	0.0901	-0.0000	-0.0001	-0.0004	0.1174	-0.5453	-0.4149	
712794728.000000	10	1.0677	-0.0316	0.0901	0.0006	0.0011	0.0003	0.1324	-0.6121	-0.4911	
712794728.000000	10	1.0677	-0.0315	0.0902	0.0004	0.0003	0.0012	0.1027	-0.5425	-0.3957	
712794728.000000	10	1.0677	-0.0315	0.0901	0.0001	0.0001	0.0002	0.1065	-0.5031	-0.4257	
712794728.000000	10	1.0677	-0.0316	0.0900	-0.0002	0.0002	-0.0008	0.1161	-0.4737	-0.4275	
712794728.000000	10	1.0677	-0.0316	0.0902	-0.0005	-0.0005	0.0016	0.1493	-0.5180	-0.4206	
712794728.000000	10	1.0678	-0.0316	0.0902	0.0005	0.0002	0.0010	0.1159	-0.5787	-0.4426	
712794728.000000	10	1.0677	-0.0316	0.0900	-0.0005	-0.0003	-0.0013	0.1280	-0.5963	-0.4715	
712794728.000000	10	1.0677	-0.0315	0.0901	0.0001	0.0003	0.0001	0.1204	-0.5424	-0.4289	
712794728.000000	10	1.0677	-0.0315	0.0901	0.0011	0.0002	0.0009	0.1320	-0.5417	-0.4477	
712794728.000000	10	1.0677	-0.0316	0.0902	-0.0002	-0.0012	0.0012	0.1888	-0.5441	-0.4124	
712794728.000000	10	1.0677	-0.0316	0.0902	0.0000	0.0000	0.0006	0.1208	-0.5747	-0.4305	
712794728.000000	10	1.0677	-0.0316	0.0901	-0.0005	-0.0003	-0.0013	0.1107	-0.5453	-0.4092	
712794728.000000	10	1.0677	-0.0315	0.0902	0.0001	0.0002	0.0008	0.1123	-0.5639	-0.4361	
712794728.000000	10	1.0677	-0.0315	0.0901	-0.0001	0.0008	0.0015	0.0590	-0.5560	-0.3899	
712794728.000000	10	1.0677	-0.0315	0.0901	-0.0001	0.0012	-0.0007	0.0814	-0.5694	-0.4251	
712794728.000000	10	1.0677	-0.0316	0.0901	-0.0007	0.0000	-0.0008	0.1154	-0.5463	-0.4123	
712794728.000000	10	1.0677	-0.0315	0.0902	0.0007	0.0004	0.0013	0.1198	-0.5562	-0.4332	
712794728.000000	10	1.0677	-0.0315	0.0901	0.0003	0.0002	0.0000	0.1004	-0.5226	-0.4032	
712794728.000000	10	1.0677	-0.0316	0.0901	-0.0006	-0.0008	-0.0007	0.1287	-0.5673	-0.4159	
712794728.000000	10	1.0677	-0.0316	0.0900	-0.0001	0.0011	-0.0017	0.1044	-0.4774	-0.4191	
712794728.000000	10	1.0677	-0.0315	0.0902	0.0001	0.0002	0.0001	0.1364	-0.5831	-0.4450	
712794728.000000	10	1.0677	-0.0315	0.0902	0.0004	0.0002	0.0012	0.1243	-0.5668	-0.4380	
712794728.000000	10	1.0677	-0.0316	0.0901	-0.0004	-0.0003	-0.0012	0.1258	-0.5582	-0.4432	
712794728.000000	10	1.0677	-0.0315	0.0901	0.0004	-0.0005	-0.0005	0.1230	-0.5350	-0.4228	
712794728.000000	10	1.0677	-0.0315	0.0902	0.0003	0.0001	0.0010	0.0796	-0.6139	-0.4280	
712794728.000000	10	1.0677	-0.0315	0.0902	-0.0002	0.0004	0.0012	0.0810	-0.6081	-0.4340	
712794728.000000	10	1.0678	-0.0316	0.0902	0.0002	-0.0003	0.0000	0.1221	-0.5718	-0.4357	
712794728.000000	10	1.0677	-0.0315	0.0902	0.0001	-0.0002	0.0011	0.1159	-0.5369	-0.3996	
712794728.000000	10	1.0675	-0.0313	0.0904	-0.0021	0.0034	0.0041	0.0690	-0.2422	-0.0737	
712794728.000000	10	1.0677	-0.0315	0.0902	0.0004	0.0001	0.0014	0.1222	-0.5595	-0.4372	
712794728.000000	10	1.0677	-0.0315	0.0901	-0.0004	-0.0001	-0.0009	0.1165	-0.5380	-0.4190	
712794728.000000	10	1.0677	-0.0315	0.0901	-0.0003	-0.0001	-0.0010	0.1160	-0.5352	-0.4208	
712794728.000000	10	1.0677	-0.0315	0.0901	0.0001	0.0003	0.0003	0.0980	-0.5207	-0.3965	
712794728.000000	10	1.0677	-0.0316	0.0901	-0.0001	-0.0001	-0.0002	0.1238	-0.5411	-0.4295	
712794728.000000	10	1.0677	-0.0315	0.0901	0.0005	0.0000	-0.0011	0.0974	-0.5158	-0.3991	
712794728.000000	10	1.0674	-0.0313	0.0903	-0.0031	0.0031	0.0016	0.0327	-0.2989	-0.1264	
712794728.000000	10	1.0677	-0.0316	0.0900	-0.0005	-0.0003	-0.0015	0.1245	-0.6121	-0.4786	
712794728.000000	10	1.0677	-0.0316	0.0901	-0.0005	-0.0003	-0.0013	0.1228	-0.5449	-0.4195	
712794728.000000	10	1.0677	-0.0315	0.0902	0.0020	-0.0026	-0.0030	0.0744	-0.5995	-0.4273	
712794728.000000	10	1.0677	-0.0316	0.0901	-0.0003	-0.0002	-0.0010	0.1241	-0.5375	-0.4137	
712794728.000000	10	1.0677	-0.0314	0.0900	0.0001	0.0013	-0.0007	0.1166	-0.6014	-0.4730	
712794728.000000	10	1.0677	-0.0316	0.0901	-0.0001	-0.0000	-0.0005	0.1078	-0.5624	-0.4375	
712794728.000000	10	1.0677	-0.0315	0.0901	-0.0000	-0.0002	-0.0002	0.1103	-0.5373	-0.4121	
712794728.000000	10	1.0677	-0.0315	0.0901	0.0000	0.0001	-0.0002	0.1213	-0.5763	-0.4478	
712794728.000000	10	1.0677	-0.0317	0.0901	-0.0005	-0.0018	-0.0003	0.1941	-0.5419	-0.4147	
712794728.000000	10	1.0677	-0.0315	0.0901	0.0035	-0.0033	-0.0026	0.0982	-0.5085	-0.3803	
712794728.000000	10	1.0677	-0.0315	0.0902	-0.0003	0.0007	0.0018	0.0835	-0.6175	-0.4256	
712794728.000000	10	1.0677	-0.0316	0.0901	0.0001	0.0000	0.0001	0.1157	-0.5463	-0.4121	
712795575.000000	10	1.0677	-0.0315	0.0901	-0.0002	-0.0001	-0.0015	0.1491	-0.5999	-0.4705	
712795575.000000	10	1.0677	-0.0315	0.0902	0.0001	0.0007	0.0013	0.0769	-0.6091	-0.4261	
712795575.000000	10	1.0677	-0.0315	0.0901	0.0002	-0.0014	0.0014	0.1219	-0.5732	-0.4340	
712795575.000000	10	1.0676	-0.0315	0.0901	-0.0008	0.0005	0.0003	0.0743	-0.6155	-0.4374	
