	t	ID	x	y	z	vx	vy	vz	yaw	roll	pitch	
-6277438562204192487878988888393020692503707483087375482269988814848.000000	10	1.0677	-0.0315	0.0902	12.8128	-0.3784	1.0821	0.1136	-0.5641	-0.4338	
-6277438562204192487878988888393020692503707483087375482269988814848.000000	10	1.0677	-0.0315	0.0902	12.8129	-0.3785	1.0820	0.1255	-0.5589	-0.4299	
-6277438562204192487878988888393020692503707483087375482269988814848.000000	10	1.0677	-0.0315	0.0902	12.8127	-0.3781	1.0821	0.1364	-0.5682	-0.4397	
-6277438562204192487878988888393020692503707483087375482269988814848.000000	10	1.0677	-0.0315	0.0902	12.8128	-0.3786	1.0820	0.1228	-0.5650	-0.4355	
-6277438562204192487878988888393020692503707483087375482269988814848.000000	10	1.0675	-0.0313	0.0904	12.8101	-0.3754	1.0845	0.0713	-0.2998	-0.1387	
-6277438562204192487878988888393020692503707483087375482269988814848.000000	10	1.0677	-0.0316	0.0902	12.8127	-0.3786	1.0820	0.1216	-0.5676	-0.4269	
-6277438562204192487878988888393020692503707483087375482269988814848.000000	10	1.0677	-0.0315	0.0901	12.8121	-0.3786	1.0808	0.0901	-0.6280	-0.4807	
-6277438562204192487878988888393020692503707483087375482269988814848.000000	10	1.0677	-0.0315	0.0901	12.8124	-0.3781	1.0813	0.0971	-0.5114	-0.3809	
-6277438562204192487878988888393020692503707483087375482269988814848.000000	10	1.0677	-0.0315	0.0902	12.8128	-0.3784	1.0820	0.1307	-0.5624	-0.4382	
-6277438562204192487878988888393020692503707483087375482269988814848.000000	10	1.0678	-0.0316	0.0902	12.8130	-0.3787	1.0819	0.1209	-0.5832	-0.4424	
-6277438562204192487878988888393020692503707483087375482269988814848.000000	10	1.0677	-0.0315	0.0902	0.0000	0.0003	0.0001	0.0994	-0.5482	-0.4024	
-6277438562204192487878988888393020692503707483087375482269988814848.000000	10	1.0678	-0.0315	0.0902	0.0003	-0.0001	-0.0000	0.1203	-0.5744	-0.4364	
-6277438562204192487878988888393020692503707483087375482269988814848.000000	10	1.0677	-0.0315	0.0902	0.0000	-0.0004	0.0001	0.1224	-0.5631	-0.4179	
-6277438562204192487878988888393020692503707483087375482269988814848.000000	10	1.0677	-0.0315	0.0902	0.0002	0.0003	0.0002	0.1173	-0.5378	-0.4095	
-6277438562204192487878988888393020692503707483087375482269988814848.000000	10	1.0677	-0.0316	0.0901	0.0029	-0.0035	-0.0032	0.1427	-0.6215	-0.5064	
-6277438562204192487878988888393020692503707483087375482269988814848.000000	10	1.0678	-0.0315	0.0902	0.0003	0.0004	0.0002	0.1086	-0.5325	-0.3997	
-6277438562204192487878988888393020692503707483087375482269988814848.000000	10	1.0677	-0.0315	0.0902	0.0006	0.0000	0.0013	0.1209	-0.5672	-0.4385	
-6277438562204192487878988888393020692503707483087375482269988814848.000000	10	1.0677	-0.0315	0.0902	0.0004	-0.0004	0.0006	0.1269	-0.5645	-0.4507	
-6277438562204192487878988888393020692503707483087375482269988814848.000000	10	1.0677	-0.0315	0.0902	0.0001	-0.0000	0.0002	0.0999	-0.5365	-0.4025	
-6277438562204192487878988888393020692503707483087375482269988814848.000000	10	1.0678	-0.0315	0.0902	0.0002	0.0002	0.0002	0.1215	-0.5769	-0.4452	
-6277438562204192487878988888393020692503707483087375482269988814848.000000	10	1.0677	-0.0315	0.0902	-0.0000	-0.0000	0.0001	0.1001	-0.5324	-0.4117	
-6277438562204192487878988888393020692503707483087375482269988814848.000000	10	1.0678	-0.0315	0.0902	0.0001	0.0004	0.0002	0.0978	-0.5488	-0.4098	
-6277438562204192487878988888393020692503707483087375482269988814848.000000	10	1.0677	-0.0315	0.0902	0.0002	0.0004	0.0003	0.0993	-0.5541	-0.4021	
-6277438562204192487878988888393020692503707483087375482269988814848.000000	10	1.0677	-0.0315	0.0901	-0.0005	0.0002	-0.0015	0.0930	-0.4533	-0.4016	
-6277438562204192487878988888393020692503707483087375482269988814848.000000	10	1.0677	-0.0316	0.0901	-0.0004	0.0002	-0.0000	0.1108	-0.5205	-0.3812	
-6277438562204192487878988888393020692503707483087375482269988814848.000000	10	1.0677	-0.0315	0.0901	-0.0005	-0.0002	-0.0008	0.1361	-0.6257	-0.4998	
-6277438562204192487878988888393020692503707483087375482269988814848.000000	10	1.0677	-0.0315	0.0901	-0.0002	-0.0001	-0.0007	0.1106	-0.5186	-0.3979	
-6277438562204192487878988888393020692503707483087375482269988814848.000000	10	1.0677	-0.0315	0.0902	-0.0000	0.0006	0.0004	0.1111	-0.5418	-0.4098	
-6277438562204192487878988888393020692503707483087375482269988814848.000000	10	1.0677	-0.0316	0.0902	-0.0004	-0.0013	-0.0001	0.1995	-0.5488	-0.4143	
-6277438562204192487878988888393020692503707483087375482269988814848.000000	10	1.0677	-0.0315	0.0901	-0.0013	0.0001	-0.0006	0.0756	-0.5946	-0.4098	
-6277438562204192487878988888393020692503707483087375482269988814848.000000	10	1.0677	-0.0316	0.0900	-0.0005	-0.0007	-0.0018	0.1329	-0.6060	-0.4710	
-6277438562204192487878988888393020692503707483087375482269988814848.000000	10	1.0677	-0.0315	0.0902	-0.0005	-0.0003	-0.0001	0.1212	-0.5716	-0.4327	
-6277438562204192487878988888393020692503707483087375482269988814848.000000	10	1.0677	-0.0315	0.0902	-0.0006	-0.0002	-0.0002	0.0808	-0.6062	-0.4276	
-6277438562204192487878988888393020692503707483087375482269988814848.000000	10	1.0677	-0.0316	0.0901	-0.0001	-0.0006	-0.0001	0.1322	-0.6010	-0.4775	
-6277438562204192487878988888393020692503707483087375482269988814848.000000	10	1.0675	-0.0313	0.0904	-0.0023	0.0035	0.0039	0.0652	-0.2289	-0.0771	
-6277438562204192487878988888393020692503707483087375482269988814848.000000	10	1.0677	-0.0315	0.0902	0.0000	0.0003	0.0006	0.0878	-0.5922	-0.4419	
-6277438562204192487878988888393020692503707483087375482269988814848.000000	10	1.0677	-0.0315	0.0902	0.0002	0.0003	0.0007	0.1274	-0.5545	-0.4421	
-6277438562204192487878988888393020692503707483087375482269988814848.000000	10	1.0678	-0.0315	0.0902	0.0004	-0.0005	-0.0003	0.1150	-0.5788	-0.4392	
-6277438562204192487878988888393020692503707483087375482269988814848.000000	10	1.0677	-0.0316	0.0901	-0.0003	0.0011	-0.0012	0.1418	-0.5413	-0.4123	
-6277438562204192487878988888393020692503707483087375482269988814848.000000	10	1.0677	-0.0315	0.0902	0.0003	0.0007	0.0012	0.0694	-0.5830	-0.4142	
-6277438562204192487878988888393020692503707483087375482269988814848.000000	10	1.0677	-0.0315	0.0901	0.0004	0.0002	0.0011	0.1323	-0.6334	-0.4846	
-6277438562204192487878988888393020692503707483087375482269988814848.000000	10	1.0677	-0.0315	0.0902	-0.0005	0.0010	0.0000	0.0923	-0.5788	-0.4321	
-6277438562204192487878988888393020692503707483087375482269988814848.000000	10	1.0677	-0.0315	0.0901	0.0007	0.0001	-0.0006	0.1141	-0.6096	-0.4780	
-6277438562204192487878988888393020692503707483087375482269988814848.000000	10	1.0677	-0.0315	0.0902	0.0004	0.0004	0.0015	0.1234	-0.5541	-0.4313	
-6277438562204192487878988888393020692503707483087375482269988814848.000000	10	1.0677	-0.0316	0.0901	0.0022	-0.0036	-0.0044	0.1124	-0.6104	-0.4539	
-6277438562204192487878988888393020692503707483087375482269988814848.000000	10	1.0677	-0.0315	0.0901	-0.0001	0.0004	-0.0003	0.1199	-0.5887	-0.4547	
-6277438562204192487878988888393020692503707483087375482269988814848.000000	10	1.0677	-0.0315	0.0902	0.0001	-0.0002	0.0002	0.1042	-0.5354	-0.3910	
-6277438562204192487878988888393020692503707483087375482269988814848.000000	10	1.0677	-0.0315	0.0902	-0.0003	0.0002	0.0004	0.1178	-0.5340	-0.3951	
-6277438562204192487878988888393020692503707483087375482269988814848.000000	10	1.0677	-0.0315	0.0901	0.0003	0.0002	-0.0001	0.1127	-0.5549	-0.4314	
-6277438562204192487878988888393020692503707483087375482269988814848.000000	10	1.0677	-0.0315	0.0902	0.0008	-0.0001	-0.0006	0.1087	-0.5225	-0.4127	
-6277438562204192487878988888393020692503707483087375482269988814848.000000	10	1.0677	-0.0315	0.0902	-0.0005	0.0008	0.0005	0.1376	-0.5684	-0.4245	
-6277438562204192487878988888393020692503707483087375482269988814848.000000	10	1.0678	-0.0315	0.0902	0.0009	-0.0010	0.0001	0.1055	-0.5445	-0.4059	
-6277438562204192487878988888393020692503707483087375482269988814848.000000	10	1.0679	-0.0315	0.0902	0.0021	0.0007	0.0008	-0.0782	-0.4720	-0.2984	
-6277438562204192487878988888393020692503707483087375482269988814848.000000	10	1.0678	-0.0315	0.0902	0.0004	0.0002	-0.0000	0.1054	-0.5444	-0.4136	
-6277438562204192487878988888393020692503707483087375482269988814848.000000	10	1.0677	-0.0315	0.0902	0.0005	0.0006	0.0016	0.1125	-0.5335	-0.4220	
-6277438562204192487878988888393020692503707483087375482269988814848.000000	10	1.0677	-0.0315	0.0902	0.0002	-0.0006	0.0004	0.1316	-0.5748	-0.4397	
-6277438562204192487878988888393020692503707483087375482269988814848.000000	10	1.0677	-0.0315	0.0901	-0.0001	0.0000	-0.0009	0.0850	-0.5272	-0.3969	
-6277438562204192487878988888393020692503707483087375482269988814848.000000	10	1.0678	-0.0315	0.0902	0.0004	0.0003	-0.0003	0.1105	-0.5325	-0.4126	
-6277438562204192487878988888393020692503707483087375482269988814848.000000	10	1.0680	-0.0314	0.0903	0.0032	0.0012	0.0024	-0.0305	-0.4442	-0.3297	
-6277438562204192487878988888393020692503707483087375482269988814848.000000	10	1.0677	-0.0315	0.0902	-0.0007	0.0001	0.0004	0.0668	-0.5763	-0.3952	
-6277438562204192487878988888393020692503707483087375482269988814848.000000	10	1.0677	-0.0315	0.0902	0.0001	0.0001	0.0006	0.0629	-0.5812	-0.3967	
-6277438562204192487878988888393020692503707483087375482269988814848.000000	10	1.0677	-0.0315	0.0902	-0.0002	0.0001	-0.0004	0.1408	-0.5764	-0.4418	
-6277438562204192487878988888393020692503707483087375482269988814848.000000	10	1.0677	-0.0315	0.0901	-0.0031	-0.0009	-0.0009	0.0747	-0.5899	-0.4092	
-6277438562204192487878988888393020692503707483087375482269988814848.000000	10	1.0678	-0.0315	0.0902	-0.0001	-0.0002	0.0002	0.1058	-0.5342	-0.3903	
-6277438562204192487878988888393020692503707483087375482269988814848.000000	10	1.0678	-0.0315	0.0902	0.0000	0.0003	-0.0001	0.0941	-0.5311	-0.4033	
-6277438562204192487878988888393020692503707483087375482269988814848.000000	10	1.0677	-0.0316	0.0901	-0.0003	-0.0003	-0.0010	0.1166	-0.5366	-0.4113	
-6277438562204192487878988888393020692503707483087375482269988814848.000000	10	1.0677	-0.0315	0.0902	-0.0003	0.0006	0.0009	0.1228	-0.5388	-0.4142	
-6277438562204192487878988888393020692503707483087375482269988814848.000000	10	1.0678	-0.0316	0.0902	-0.0002	-0.0007	-0.0001	0.1147	-0.5750	-0.4408	
-6277438562204192487878988888393020692503707483087375482269988814848.000000	10	1.0677	-0.0315	0.0901	-0.0032	-0.0013	-0.0016	0.1370	-0.6256	-0.4854	
-6277438562204192487878988888393020692503707483087375482269988814848.000000	10	1.0678	-0.0316	0.0902	0.0008	-0.0010	-0.0006	0.1109	-0.5760	-0.4404	
-6277438562204192487878988888393020692503707483087375482269988814848.000000	10	1.0677	-0.0315	0.0902	0.0004	-0.0004	-0.0003	0.0879	-0.6134	-0.4466	
-6277438562204192487878988888393020692503707483087375482269988814848.000000	10	1.0677	-0.0315	0.0902	-0.0002	0.0003	0.0004	0.0959	-0.5324	-0.3954	
-6277438562204192487878988888393020692503707483087375482269988814848.000000	10	1.0677	-0.0315	0.0902	0.0009	0.0003	0.0007	0.0898	-0.5347	-0.3937	
-6277438562204192487878988888393020692503707483087375482269988814848.000000	10	1.0677	-0.0315	0.0901	-0.0004	0.0004	-0.0005	0.1033	-0.5906	-0.4546	
-6277438562204192487878988888393020692503707483087375482269988814848.000000	10	1.0677	-0.0316	0.0901	-0.0003	-0.0009	-0.0015	0.1184	-0.5614	-0.4994	
-6277438562204192487878988888393020692503707483087375482269988814848.000000	10	1.0677	-0.0316	0.0901	-0.0001	-0.0000	0.0001	0.1193	-0.5477	-0.4206	
-6277438562204192487878988888393020692503707483087375482269988814848.000000	10	1.0677	-0.0315	0.0901	0.0002	-0.0006	-0.0008	0.1056	-0.5070	-0.3945	
-6277438562204192487878988888393020692503707483087375482269988814848.000000	10	1.0677	-0.0315	0.0902	-0.0003	0.0004	0.0002	0.1269	-0.5675	-0.4273	
-6277438562204192487878988888393020692503707483087375482269988814848.000000	10	1.0677	-0.0316	0.0901	0.0002	-0.0003	-0.0006	0.1212	-0.5517	-0.4222	
-6277438562204192487878988888393020692503707483087375482269988814848.000000	10	1.0677	-0.0316	0.0902	-0.0007	-0.0011	0.0004	0.1971	-0.5480	-0.4071	
-6277438562204192487878988888393020692503707483087375482269988814848.000000	10	1.0675	-0.0313	0.0904	-0.0022	0.0029	0.0028	0.0525	-0.2258	-0.0645	
-6277438562204192487878988888393020692503707483087375482269988814848.000000	10	1.0677	-0.0315	0.0901	-0.0002	0.0001	-0.0004	0.1134	-0.5987	-0.4622	
-6277438562204192487878988888393020692503707483087375482269988814848.000000	10	1.0677	-0.0315	0.0902	-0.0003	-0.0005	0.0000	0.0833	-0.6185	-0.4279	
-6277438562204192487878988888393020692503707483087375482269988814848.000000	10	1.0680	-0.0315	0.0903	0.0031	0.0006	0.0013	-0.0303	-0.4611	-0.3181	
-6277438562204192487878988888393020692503707483087375482269988814848.000000	10	1.0677	-0.0315	0.0900	-0.0004	0.0010	-0.0007	0.1262	-0.5713	-0.4613	
-6277438562204192487878988888393020692503707483087375482269988814848.000000	10	1.0677	-0.0315	0.0902	0.0002	0.0003	0.0013	0.0752	-0.5895	-0.4153	
-6277438562204192487878988888393020692503707483087375482269988814848.000000	10	1.0677	-0.0315	0.0901	-0.0003	0.0007	0.0003	0.1226	-0.5932	-0.4601	
-6277438562204192487878988888393020692503707483087375482269988814848.000000	10	1.0677	-0.0316	0.0902	-0.0008	-0.0011	0.0006	0.1598	-0.5842	-0.4077	
-6277438562204192487878988888393020692503707483087375482269988814848.000000	10	1.0677	-0.0316	0.0901	-0.0005	0.0001	-0.0004	0.1267	-0.5965	-0.4814	
-6277438562204192487878988888393020692503707483087375482269988814848.000000	10	1.0677	-0.0316	0.0901	0.0002	0.0011	-0.0008	0.1142	-0.5008	-0.4409	
-6277438562204192487878988888393020692503707483087375482269988814848.000000	10	1.0677	-0.0315	0.0902	0.0024	-0.0027	-0.0030	0.0935	-0.5365	-0.4002	
-6277438562204192487878988888393020692503707483087375482269988814848.000000	10	1.0677	-0.0315	0.0901	0.0001	-0.0002	-0.0009	0.1016	-0.4295	-0.4448	
-6277438562204192487878988888393020692503707483087375482269988814848.000000	10	1.0680	-0.0315	0.0902	0.0030	0.0009	-0.0001	-0.0486	-0.4293	-0.2957	
-6277438562204192487878988888393020692503707483087375482269988814848.000000	10	1.0677	-0.0315	0.0902	-0.0032	-0.0005	-0.0013	0.1049	-0.5872	-0.4552	
-6277438562204192487878988888393020692503707483087375482269988814848.000000	10	1.0677	-0.0315	0.0902	0.0004	-0.0003	0.0020	0.1030	-0.6146	-0.4573	
-6277438562204192487878988888393020692503707483087375482269988814848.000000	10	1.0677	-0.0315	0.0902	-0.0004	0.0007	0.0001	0.0640	-0.5785	-0.3926	
-6277438562204192487878988888393020692503707483087375482269988814848.000000	10	1.0677	-0.0315	0.0902	0.0005	-0.0009	0.0002	0.1205	-0.5873	-0.4477	
-6277438562204192487878988888393020692503707483087375482269988814848.000000	10	1.0678	-0.0315	0.0902	0.0010	0.0012	-0.0005	0.1000	-0.5429	-0.4245	
-6277438562204192487878988888393020692503707483087375482269988814848.000000	10	1.0678	-0.0315	0.0901	0.0008	0.0005	0.0010	0.1035	-0.5994	-0.4653	
-6277438562204192487878988888393020692503707483087375482269988814848.000000	10	1.0677	-0.0315	0.0902	0.0002	0.0007	0.0008	0.0999	-0.5498	-0.3982	
-6277438562204192487878988888393020692503707483087375482269988814848.000000	10	1.0677	-0.0316	0.0902	0.0001	-0.0008	-0.0003	0.1196	-0.5806	-0.4444	
712610254.000000	10	1.0677	-0.0315	0.0901	-0.0000	0.0003	0.0005	0.0965	-0.5270	-0.3984	
712610254.000000	10	1.0677	-0.0315	0.0901	-0.0029	-0.0009	-0.0006	0.1364	-0.6169	-0.4806	
712610254.000000	10	1.0677	-0.0315	0.0902	0.0001	-0.0005	0.0004	0.1344	-0.5584	-0.4457	
712610254.000000	10	1.0677	-0.0315	0.0902	-0.0005	-0.0001	0.0003	0.0823	-0.5977	-0.4266	
712610254.000000	10	1.0675	-0.0313	0.0904	-0.0021	0.0023	0.0020	0.0812	-0.2885	-0.1458	
712610254.000000	10	1.0678	-0.0315	0.0902	0.0001	0.0004	0.0003	0.1003	-0.5540	-0.4228	
712610254.000000	10	1.0677	-0.0315	0.0902	-0.0005	0.0003	0.0004	0.0684	-0.5846	-0.4177	
712610254.000000	10	1.0677	-0.0315	0.0902	-0.0003	0.0001	0.0007	0.1036	-0.5323	-0.4053	
712610254.000000	10	1.0677	-0.0315	0.0902	0.0001	-0.0004	-0.0001	0.1163	-0.5658	-0.4197	
712610254.000000	10	1.0677	-0.0315	0.0901	-0.0007	0.0001	-0.0008	0.1211	-0.5472	-0.4188	
712610254.000000	10	1.0677	-0.0315	0.0901	-0.0001	-0.0001	0.0002	0.1596	-0.6072	-0.4921	
712610254.000000	10	1.0677	-0.0315	0.0902	-0.0005	0.0003	0.0009	0.0867	-0.6122	-0.4198	
712610254.000000	10	1.0677	-0.0315	0.0901	0.0000	0.0002	-0.0012	0.1032	-0.5916	-0.4602	
712610254.000000	10	1.0677	-0.0315	0.0902	-0.0002	0.0005	-0.0004	0.0643	-0.6280	-0.4550	
712610254.000000	10	1.0677	-0.0315	0.0902	0.0027	-0.0027	-0.0022	0.1020	-0.5482	-0.4076	
712610254.000000	10	1.0677	-0.0315	0.0901	-0.0006	-0.0001	-0.0009	0.0920	-0.5181	-0.3875	
712610254.000000	10	1.0677	-0.0315	0.0902	0.0004	0.0001	-0.0005	0.1085	-0.5805	-0.4439	
712610254.000000	10	1.0677	-0.0315	0.0902	0.0000	0.0002	0.0001	0.0977	-0.5492	-0.4167	
712610254.000000	10	1.0677	-0.0315	0.0901	-0.0004	-0.0001	-0.0006	0.1228	-0.6165	-0.4896	
712610254.000000	10	1.0677	-0.0316	0.0901	0.0005	-0.0003	-0.0001	0.1186	-0.5514	-0.4306	
712610254.000000	10	1.0677	-0.0316	0.0901	0.0003	-0.0006	-0.0001	0.1202	-0.5219	-0.4655	
712610254.000000	10	1.0677	-0.0315	0.0902	0.0000	0.0000	0.0000	0.0844	-0.6031	-0.4240	
712610254.000000	10	1.0677	-0.0315	0.0902	0.0001	0.0002	0.0013	0.1042	-0.5480	-0.4111	
712610254.000000	10	1.0675	-0.0312	0.0905	-0.0016	0.0028	0.0034	0.0484	-0.2318	-0.0706	
712610254.000000	10	1.0677	-0.0315	0.0902	0.0001	-0.0004	-0.0001	0.1205	-0.5653	-0.4284	
712610254.000000	10	1.0675	-0.0312	0.0904	-0.0024	0.0034	0.0040	0.0801	-0.2346	-0.0763	
712610254.000000	10	1.0677	-0.0315	0.0901	-0.0000	-0.0004	-0.0004	0.1125	-0.6118	-0.4820	
712610254.000000	10	1.0678	-0.0315	0.0902	0.0002	-0.0005	-0.0004	0.1427	-0.5819	-0.4410	
712610254.000000	10	1.0677	-0.0315	0.0902	0.0005	0.0007	0.0009	0.0965	-0.5341	-0.3988	
712610254.000000	10	1.0677	-0.0315	0.0901	-0.0003	0.0007	0.0004	0.0953	-0.5153	-0.3944	
712610254.000000	10	1.0678	-0.0315	0.0902	0.0001	0.0001	0.0006	0.1283	-0.5798	-0.4412	
712610254.000000	10	1.0677	-0.0315	0.0902	0.0007	0.0001	-0.0001	0.1026	-0.5314	-0.3969	
712610254.000000	10	1.0677	-0.0315	0.0902	-0.0000	-0.0001	-0.0000	0.1007	-0.5340	-0.3879	
712610254.000000	10	1.0677	-0.0315	0.0902	0.0022	-0.0032	-0.0027	0.1402	-0.5540	-0.4093	
712610254.000000	10	1.0677	-0.0315	0.0901	-0.0001	-0.0001	-0.0011	0.1013	-0.5261	-0.4062	
712610254.000000	10	1.0677	-0.0316	0.0902	0.0024	-0.0040	-0.0028	0.1184	-0.5787	-0.4201	
712610254.000000	10	1.0675	-0.0313	0.0904	-0.0026	0.0030	0.0035	0.0530	-0.2199	-0.0720	
712610254.000000	10	1.0677	-0.0316	0.0901	-0.0003	-0.0005	-0.0010	0.1207	-0.5517	-0.4278	
712610254.000000	10	1.0677	-0.0316	0.0902	-0.0001	-0.0009	-0.0001	0.1187	-0.5849	-0.4209	
712610254.000000	10	1.0678	-0.0315	0.0902	0.0007	-0.0004	0.0004	0.1232	-0.5740	-0.4307	
712610254.000000	10	1.0677	-0.0315	0.0902	-0.0010	0.0010	-0.0002	0.0693	-0.5500	-0.3986	
712610254.000000	10	1.0678	-0.0315	0.0902	0.0003	0.0003	-0.0003	0.0827	-0.5496	-0.4196	
712610254.000000	10	1.0677	-0.0315	0.0902	-0.0007	-0.0001	-0.0004	0.0876	-0.6503	-0.4807	
712610254.000000	10	1.0677	-0.0315	0.0902	0.0001	0.0001	-0.0004	0.1009	-0.5324	-0.4077	
712610254.000000	10	1.0677	-0.0315	0.0902	0.0001	0.0001	0.0010	0.1348	-0.5597	-0.4369	
712610254.000000	10	1.0677	-0.0315	0.0902	0.0002	0.0007	-0.0002	0.1015	-0.5418	-0.4085	
712610254.000000	10	1.0677	-0.0315	0.0902	0.0025	-0.0029	-0.0030	0.0973	-0.5371	-0.4024	
712610254.000000	10	1.0677	-0.0315	0.0902	-0.0001	0.0003	0.0011	0.1331	-0.5620	-0.4234	
712610254.000000	10	1.0677	-0.0315	0.0902	-0.0005	0.0009	0.0003	0.0622	-0.5781	-0.4013	
712610254.000000	10	1.0677	-0.0316	0.0902	-0.0006	-0.0004	0.0006	0.1905	-0.5167	-0.3772	
712610254.000000	10	1.0677	-0.0315	0.0902	0.0008	-0.0004	0.0005	0.1047	-0.5447	-0.3960	
712610254.000000	10	1.0677	-0.0316	0.0901	-0.0003	-0.0010	-0.0007	0.1358	-0.6176	-0.4990	
712610254.000000	10	1.0678	-0.0315	0.0902	0.0012	-0.0000	0.0004	0.1038	-0.5538	-0.4129	
712610254.000000	10	1.0677	-0.0315	0.0902	0.0000	0.0000	0.0001	0.0981	-0.5392	-0.3974	
712610254.000000	10	1.0677	-0.0315	0.0902	-0.0006	0.0007	0.0004	0.0634	-0.5775	-0.4020	
712610254.000000	10	1.0677	-0.0315	0.0902	-0.0001	-0.0002	-0.0002	0.1244	-0.5612	-0.4291	
712610254.000000	10	1.0677	-0.0316	0.0902	-0.0005	-0.0018	0.0003	0.1938	-0.5485	-0.4118	
712610254.000000	10	1.0678	-0.0315	0.0901	0.0004	-0.0000	-0.0007	0.1081	-0.5244	-0.3968	
712610254.000000	10	1.0677	-0.0315	0.0902	0.0005	-0.0003	-0.0003	0.0970	-0.5411	-0.3990	
712610254.000000	10	1.0677	-0.0315	0.0902	-0.0004	0.0008	-0.0001	0.0820	-0.5929	-0.4297	
712610254.000000	10	1.0677	-0.0315	0.0902	-0.0000	-0.0000	-0.0001	0.0922	-0.5337	-0.4003	
712610254.000000	10	1.0677	-0.0315	0.0902	-0.0001	0.0003	0.0007	0.1220	-0.5668	-0.4278	
712610254.000000	10	1.0677	-0.0315	0.0902	-0.0006	0.0006	0.0000	0.1170	-0.5472	-0.4010	
712610254.000000	10	1.0677	-0.0315	0.0902	-0.0000	-0.0005	-0.0002	0.1242	-0.5642	-0.4324	
712610254.000000	10	1.0677	-0.0315	0.0901	0.0002	-0.0008	-0.0018	0.1390	-0.5895	-0.4865	
712610254.000000	10	1.0677	-0.0316	0.0901	0.0000	-0.0004	-0.0012	0.1187	-0.5856	-0.4573	
712610254.000000	10	1.0677	-0.0316	0.0901	0.0003	0.0011	-0.0015	0.1216	-0.5474	-0.4146	
712610254.000000	10	1.0677	-0.0315	0.0901	-0.0011	0.0003	0.0003	0.0862	-0.5866	-0.4077	
712610254.000000	10	1.0678	-0.0315	0.0902	0.0002	-0.0002	0.0000	0.1016	-0.5523	-0.4118	
712610254.000000	10	1.0677	-0.0315	0.0902	0.0005	-0.0004	-0.0003	0.1249	-0.5596	-0.4237	
712610254.000000	10	1.0677	-0.0315	0.0902	-0.0006	0.0003	0.0004	0.0667	-0.5888	-0.4006	
712610254.000000	10	1.0677	-0.0315	0.0902	-0.0006	0.0003	0.0003	0.0846	-0.6040	-0.4318	
712610254.000000	10	1.0677	-0.0316	0.0901	-0.0002	-0.0010	-0.0012	0.1165	-0.5484	-0.4241	
712610254.000000	10	1.0677	-0.0316	0.0901	-0.0003	-0.0002	-0.0011	0.1210	-0.5394	-0.4178	
712610254.000000	10	1.0677	-0.0315	0.0902	0.0003	0.0001	0.0014	0.1233	-0.5584	-0.4348	
712610254.000000	10	1.0677	-0.0316	0.0901	-0.0002	0.0002	0.0001	0.0946	-0.4804	-0.5014	
712610254.000000	10	1.0677	-0.0315	0.0902	0.0002	0.0007	0.0014	0.0983	-0.5439	-0.4008	
712610254.000000	10	1.0677	-0.0315	0.0901	0.0006	-0.0002	-0.0004	0.1098	-0.5408	-0.4210	
712610254.000000	10	1.0677	-0.0315	0.0902	-0.0007	0.0006	0.0003	0.0561	-0.5725	-0.3926	
712610254.000000	10	1.0677	-0.0315	0.0901	-0.0005	0.0001	-0.0007	0.0723	-0.5987	-0.4251	
712610254.000000	10	1.0677	-0.0315	0.0902	0.0005	-0.0002	-0.0001	0.0545	-0.5929	-0.4080	
712610254.000000	10	1.0677	-0.0316	0.0901	0.0004	-0.0004	-0.0016	0.1405	-0.5780	-0.4640	
712610254.000000	10	1.0677	-0.0316	0.0902	0.0002	0.0000	0.0009	0.1247	-0.5634	-0.4261	
712610254.000000	10	1.0678	-0.0316	0.0902	0.0007	-0.0001	0.0019	0.1173	-0.4516	-0.3135	
712610254.000000	10	1.0677	-0.0315	0.0902	-0.0008	0.0001	-0.0002	0.0964	-0.6629	-0.4878	
712610254.000000	10	1.0677	-0.0315	0.0902	0.0005	0.0002	0.0013	0.1123	-0.5322	-0.3971	
712610254.000000	10	1.0677	-0.0316	0.0901	-0.0001	-0.0016	-0.0010	0.1696	-0.5505	-0.4161	
712610254.000000	10	1.0677	-0.0315	0.0902	0.0003	0.0001	0.0009	0.1173	-0.5666	-0.4276	
712610254.000000	10	1.0677	-0.0315	0.0901	0.0004	-0.0007	-0.0008	0.1176	-0.5858	-0.4658	
712610254.000000	10	1.0677	-0.0316	0.0901	0.0004	-0.0002	0.0003	0.1347	-0.6240	-0.4897	
712610254.000000	10	1.0677	-0.0315	0.0902	0.0003	0.0000	-0.0002	0.0923	-0.5439	-0.3983	
712610254.000000	10	1.0677	-0.0315	0.0902	-0.0003	0.0004	0.0016	0.0869	-0.6027	-0.4259	
712610254.000000	10	1.0677	-0.0315	0.0901	-0.0002	0.0005	-0.0007	0.0956	-0.5250	-0.3812	
712610254.000000	10	1.0677	-0.0315	0.0902	-0.0002	0.0002	-0.0009	0.1289	-0.5584	-0.4203	
712610254.000000	10	1.0677	-0.0315	0.0902	0.0008	0.0007	0.0004	0.1196	-0.5417	-0.4114	
712610254.000000	10	1.0677	-0.0315	0.0901	-0.0003	0.0005	-0.0006	0.1364	-0.6171	-0.4820	
712610254.000000	10	1.0680	-0.0315	0.0903	0.0032	0.0020	0.0018	-0.0341	-0.4542	-0.3153	
712610254.000000	10	1.0678	-0.0315	0.0902	0.0005	-0.0000	0.0003	0.0964	-0.5733	-0.4147	
712610254.000000	10	1.0677	-0.0315	0.0902	0.0000	0.0004	0.0007	0.0942	-0.5282	-0.4013	
712610254.000000	10	1.0677	-0.0315	0.0902	-0.0001	0.0007	0.0003	0.1074	-0.6019	-0.4612	
712610254.000000	10	1.0677	-0.0315	0.0902	-0.0002	-0.0001	-0.0005	0.1037	-0.6055	-0.4573	
712611098.000000	10	1.0678	-0.0315	0.0902	0.0009	0.0001	-0.0001	0.0898	-0.5476	-0.4055	
712611098.000000	10	1.0677	-0.0315	0.0901	0.0004	-0.0001	0.0004	0.1251	-0.5133	-0.3925	
712611098.000000	10	1.0677	-0.0315	0.0902	0.0000	0.0001	-0.0000	0.1201	-0.5728	-0.4259	
712611098.000000	10	1.0679	-0.0314	0.0903	0.0026	0.0007	0.0012	-0.0800	-0.4904	-0.3201	
712611098.000000	10	1.0680	-0.0315	0.0902	0.0032	0.0002	0.0012	-0.0087	-0.4708	-0.3366	
712611098.000000	10	1.0677	-0.0315	0.0902	-0.0030	-0.0010	-0.0012	0.1264	-0.5688	-0.4238	
712611098.000000	10	1.0677	-0.0315	0.0901	-0.0008	-0.0001	-0.0007	0.1220	-0.6245	-0.4796	
712611098.000000	10	1.0677	-0.0316	0.0902	-0.0009	-0.0011	0.0004	0.1298	-0.5605	-0.3716	
712611098.000000	10	1.0677	-0.0315	0.0901	0.0002	0.0000	-0.0001	0.1119	-0.6003	-0.4688	
712611098.000000	10	1.0677	-0.0315	0.0902	-0.0004	0.0003	0.0008	0.0578	-0.5841	-0.3912	
712611098.000000	10	1.0678	-0.0315	0.0902	0.0000	0.0001	-0.0001	0.1173	-0.5184	-0.4059	
712611098.000000	10	1.0677	-0.0316	0.0901	-0.0001	-0.0004	-0.0007	0.1187	-0.5470	-0.4308	
712611098.000000	10	1.0677	-0.0315	0.0902	-0.0004	0.0004	0.0006	0.0630	-0.5912	-0.4036	
712611098.000000	10	1.0677	-0.0315	0.0902	-0.0025	-0.0011	-0.0013	0.1253	-0.5696	-0.4305	
712611098.000000	10	1.0677	-0.0315	0.0901	-0.0033	-0.0006	-0.0019	0.1134	-0.5386	-0.4116	
712611098.000000	10	1.0677	-0.0315	0.0902	-0.0004	0.0005	0.0005	0.0718	-0.5751	-0.3882	
712611098.000000	10	1.0677	-0.0315	0.0901	-0.0002	-0.0001	-0.0007	0.1180	-0.5767	-0.4447	
712611098.000000	10	1.0677	-0.0315	0.0902	0.0011	0.0008	-0.0005	0.0989	-0.5506	-0.3974	
712611098.000000	10	1.0677	-0.0315	0.0902	0.0002	-0.0003	0.0003	0.1194	-0.5671	-0.4355	
712611098.000000	10	1.0680	-0.0314	0.0903	0.0034	0.0003	0.0006	-0.0347	-0.4557	-0.3156	
712611098.000000	10	1.0677	-0.0315	0.0902	-0.0004	-0.0004	-0.0001	0.1082	-0.5593	-0.4232	
712611098.000000	10	1.0677	-0.0315	0.0902	-0.0000	0.0008	0.0012	0.0957	-0.5438	-0.4112	
712611098.000000	10	1.0677	-0.0315	0.0902	-0.0002	-0.0002	-0.0004	0.0856	-0.6039	-0.4244	
712611098.000000	10	1.0676	-0.0316	0.0902	-0.0011	-0.0013	-0.0002	0.1426	-0.5390	-0.3563	
712611098.000000	10	1.0677	-0.0315	0.0902	0.0002	0.0001	0.0011	0.1192	-0.5656	-0.4339	
712611098.000000	10	1.0677	-0.0316	0.0901	0.0002	-0.0006	-0.0013	0.1121	-0.5474	-0.4173	
712611098.000000	10	1.0677	-0.0315	0.0901	0.0005	0.0003	0.0004	0.0947	-0.5245	-0.3983	
712611098.000000	10	1.0677	-0.0315	0.0902	-0.0001	0.0003	-0.0002	0.0971	-0.5315	-0.4041	
712611098.000000	10	1.0678	-0.0315	0.0902	0.0001	-0.0001	0.0003	0.1098	-0.5433	-0.3985	
712611098.000000	10	1.0677	-0.0315	0.0901	-0.0034	-0.0010	-0.0018	0.1529	-0.6143	-0.4773	
712611098.000000	10	1.0677	-0.0315	0.0902	0.0003	0.0000	0.0000	0.0979	-0.5460	-0.4135	
712611098.000000	10	1.0677	-0.0315	0.0902	-0.0000	-0.0003	0.0000	0.1015	-0.5286	-0.4067	
712611098.000000	10	1.0677	-0.0316	0.0902	0.0001	-0.0013	-0.0002	0.2115	-0.5436	-0.4038	
712611098.000000	10	1.0677	-0.0315	0.0902	0.0011	0.0012	0.0001	0.1451	-0.5766	-0.4541	
712611098.000000	10	1.0678	-0.0316	0.0902	0.0004	-0.0004	-0.0002	0.1234	-0.5812	-0.4390	
712611098.000000	10	1.0675	-0.0313	0.0904	-0.0022	0.0033	0.0034	0.0799	-0.3071	-0.1462	
712611098.000000	10	1.0675	-0.0312	0.0905	-0.0030	0.0034	0.0041	0.0258	-0.2605	-0.0710	
712611098.000000	10	1.0675	-0.0313	0.0904	-0.0025	0.0028	0.0028	0.0607	-0.2310	-0.0631	
712611098.000000	10	1.0677	-0.0315	0.0902	-0.0007	0.0004	0.0001	0.0762	-0.5766	-0.4067	
712611098.000000	10	1.0678	-0.0315	0.0902	0.0007	-0.0001	0.0007	0.1019	-0.5451	-0.4156	
712611098.000000	10	1.0677	-0.0317	0.0901	-0.0004	-0.0016	-0.0004	0.2127	-0.6047	-0.4810	
712611098.000000	10	1.0677	-0.0315	0.0902	0.0002	-0.0004	-0.0004	0.1442	-0.5684	-0.4386	
712611098.000000	10	1.0677	-0.0314	0.0902	0.0006	0.0022	-0.0002	0.0935	-0.5298	-0.3994	
712611098.000000	10	1.0677	-0.0315	0.0901	-0.0003	0.0001	-0.0008	0.0939	-0.5197	-0.3929	
712611098.000000	10	1.0678	-0.0316	0.0902	-0.0000	0.0001	-0.0000	0.1126	-0.5758	-0.4330	
712611098.000000	10	1.0677	-0.0315	0.0902	0.0021	-0.0028	-0.0022	0.0775	-0.5980	-0.4234	
712611098.000000	10	1.0677	-0.0315	0.0902	0.0023	-0.0034	-0.0032	0.0879	-0.6062	-0.4262	
712611098.000000	10	1.0677	-0.0315	0.0902	0.0019	-0.0025	-0.0030	0.0649	-0.6285	-0.4610	
712611098.000000	10	1.0677	-0.0315	0.0902	0.0003	-0.0004	-0.0006	0.1241	-0.5733	-0.4474	
712611098.000000	10	1.0678	-0.0315	0.0902	0.0001	0.0001	-0.0001	0.1033	-0.5562	-0.4156	
712611098.000000	10	1.0677	-0.0316	0.0902	0.0001	0.0013	0.0002	0.1236	-0.5682	-0.4291	
712611098.000000	10	1.0677	-0.0315	0.0901	-0.0006	0.0001	-0.0012	0.1078	-0.5758	-0.4502	
712611098.000000	10	1.0678	-0.0316	0.0902	0.0003	-0.0013	-0.0001	0.1305	-0.5874	-0.4482	
712611098.000000	10	1.0678	-0.0316	0.0902	0.0006	-0.0005	0.0009	0.1072	-0.5486	-0.4095	
712611098.000000	10	1.0677	-0.0315	0.0902	-0.0003	0.0001	0.0000	0.1251	-0.5555	-0.4197	
712611098.000000	10	1.0678	-0.0316	0.0902	0.0009	-0.0005	-0.0006	0.1236	-0.5666	-0.4420	
712611098.000000	10	1.0677	-0.0316	0.0902	0.0002	-0.0011	0.0004	0.1736	-0.5242	-0.3873	
712611098.000000	10	1.0677	-0.0315	0.0902	0.0007	-0.0008	-0.0002	0.1239	-0.5680	-0.4348	
712611098.000000	10	1.0677	-0.0316	0.0900	-0.0005	-0.0002	-0.0014	0.1219	-0.5974	-0.4683	
712611098.000000	10	1.0677	-0.0315	0.0902	-0.0009	0.0001	0.0001	0.0843	-0.6234	-0.4316	
712611098.000000	10	1.0677	-0.0315	0.0902	-0.0005	0.0005	0.0005	0.0854	-0.6058	-0.4255	
712611098.000000	10	1.0677	-0.0315	0.0902	0.0002	0.0001	0.0012	0.1479	-0.5595	-0.4310	
712611098.000000	10	1.0677	-0.0315	0.0901	-0.0007	0.0004	-0.0005	0.1032	-0.5109	-0.3881	
712611098.000000	10	1.0675	-0.0313	0.0904	-0.0032	0.0037	0.0029	0.0829	-0.2273	-0.0847	
712611098.000000	10	1.0677	-0.0315	0.0901	0.0002	0.0006	-0.0012	0.0931	-0.5240	-0.3813	
712611098.000000	10	1.0678	-0.0315	0.0902	-0.0002	0.0003	0.0004	0.1131	-0.5329	-0.4037	
712611098.000000	10	1.0677	-0.0315	0.0902	0.0002	0.0013	-0.0004	0.1025	-0.5320	-0.3941	
712611098.000000	10	1.0677	-0.0316	0.0901	-0.0001	-0.0001	-0.0005	0.1268	-0.6272	-0.4958	
712611098.000000	10	1.0677	-0.0315	0.0901	-0.0000	0.0006	0.0007	0.1160	-0.5089	-0.3830	
712611098.000000	10	1.0677	-0.0316	0.0902	0.0007	-0.0005	-0.0002	0.1232	-0.5760	-0.4423	
712611098.000000	10	1.0677	-0.0316	0.0901	0.0003	-0.0004	-0.0012	0.1199	-0.5469	-0.4120	
712611098.000000	10	1.0677	-0.0316	0.0900	-0.0003	-0.0005	-0.0014	0.1300	-0.6029	-0.4691	
712611098.000000	10	1.0677	-0.0315	0.0901	-0.0002	0.0001	-0.0006	0.0813	-0.4470	-0.3956	
712611098.000000	10	1.0677	-0.0315	0.0901	0.0023	-0.0031	-0.0043	0.1060	-0.5636	-0.4434	
712611098.000000	10	1.0677	-0.0315	0.0901	-0.0006	-0.0006	0.0005	0.1278	-0.5368	-0.4301	
712611098.000000	10	1.0677	-0.0316	0.0901	-0.0007	-0.0004	-0.0012	0.1235	-0.5471	-0.4125	
712611098.000000	10	1.0677	-0.0315	0.0901	-0.0002	-0.0002	-0.0009	0.0941	-0.5254	-0.3972	
712611098.000000	10	1.0677	-0.0315	0.0902	0.0000	0.0008	0.0010	0.1088	-0.5471	-0.4072	
712611098.000000	10	1.0677	-0.0315	0.0902	0.0002	-0.0004	0.0009	0.0811	-0.6096	-0.4320	
712611098.000000	10	1.0677	-0.0316	0.0900	-0.0008	-0.0000	-0.0015	0.1284	-0.5968	-0.4887	
712611098.000000	10	1.0677	-0.0315	0.0902	0.0005	0.0008	0.0013	0.0897	-0.5115	-0.3744	
712611098.000000	10	1.0677	-0.0315	0.0901	0.0004	0.0004	0.0009	0.1092	-0.4944	-0.4388	
712611098.000000	10	1.0677	-0.0316	0.0902	0.0006	-0.0004	0.0012	0.1226	-0.5829	-0.4334	
712611098.000000	10	1.0677	-0.0315	0.0902	0.0004	0.0001	0.0014	0.1031	-0.5410	-0.3977	
712611098.000000	10	1.0675	-0.0313	0.0904	-0.0024	0.0031	0.0031	0.0551	-0.2093	-0.0570	
712611098.000000	10	1.0677	-0.0317	0.0901	-0.0001	-0.0012	0.0006	0.1997	-0.6005	-0.4674	
712611098.000000	10	1.0677	-0.0315	0.0902	0.0003	-0.0001	0.0007	0.1257	-0.5709	-0.4286	
712611098.000000	10	1.0677	-0.0315	0.0901	-0.0006	-0.0005	-0.0016	0.1100	-0.5779	-0.4539	
712611098.000000	10	1.0677	-0.0315	0.0901	-0.0003	0.0006	-0.0007	0.0485	-0.5561	-0.3893	
712611098.000000	10	1.0678	-0.0316	0.0902	0.0008	0.0001	0.0013	0.1240	-0.5732	-0.4493	
712611098.000000	10	1.0677	-0.0315	0.0902	-0.0002	-0.0003	-0.0004	0.1010	-0.5389	-0.3991	
712611098.000000	10	1.0677	-0.0315	0.0901	-0.0003	-0.0001	-0.0003	0.1128	-0.5437	-0.4312	
712611098.000000	10	1.0677	-0.0315	0.0901	-0.0006	0.0004	-0.0006	0.0954	-0.5292	-0.3978	
712611098.000000	10	1.0677	-0.0315	0.0902	-0.0006	0.0003	0.0004	0.0632	-0.5757	-0.3868	
712611098.000000	10	1.0677	-0.0315	0.0902	0.0023	-0.0023	-0.0016	0.0599	-0.5731	-0.4049	
712611098.000000	10	1.0677	-0.0315	0.0902	-0.0003	0.0017	0.0001	0.0898	-0.6643	-0.4791	
712611098.000000	10	1.0677	-0.0315	0.0902	-0.0003	0.0005	0.0002	0.1237	-0.5386	-0.4028	
712611098.000000	10	1.0677	-0.0315	0.0902	0.0006	-0.0001	0.0013	0.1288	-0.5657	-0.4236	
712611098.000000	10	1.0677	-0.0315	0.0902	0.0007	-0.0006	0.0004	0.1248	-0.5615	-0.4375	
712611098.000000	10	1.0677	-0.0316	0.0901	-0.0008	0.0000	-0.0007	0.1198	-0.5450	-0.4108	
712611098.000000	10	1.0677	-0.0316	0.0901	-0.0004	-0.0005	-0.0010	0.1114	-0.5459	-0.4139	
712611935.000000	10	1.0675	-0.0312	0.0904	-0.0029	0.0036	0.0035	0.0100	-0.2393	-0.0461	
712611935.000000	10	1.0677	-0.0315	0.0902	0.0004	-0.0001	0.0006	0.1167	-0.5575	-0.4359	
712611935.000000	10	1.0677	-0.0316	0.0901	0.0004	-0.0008	-0.0011	0.1330	-0.6188	-0.4775	
712611935.000000	10	1.0677	-0.0315	0.0901	0.0000	-0.0006	-0.0018	0.1038	-0.5617	-0.4375	
712611935.000000	10	1.0677	-0.0316	0.0902	0.0009	-0.0008	0.0005	0.1312	-0.5957	-0.4369	
712611935.000000	10	1.0677	-0.0315	0.0902	0.0003	-0.0003	-0.0000	0.1190	-0.5643	-0.4338	
712611935.000000	10	1.0677	-0.0315	0.0901	-0.0004	0.0003	-0.0007	0.0958	-0.5111	-0.3837	
712611935.000000	10	1.0677	-0.0316	0.0901	-0.0006	-0.0004	-0.0013	0.1230	-0.6136	-0.4587	
712611935.000000	10	1.0678	-0.0315	0.0902	0.0008	0.0007	0.0009	0.1340	-0.5377	-0.4396	
712611935.000000	10	1.0677	-0.0315	0.0902	0.0005	0.0004	0.0011	0.1246	-0.5610	-0.4382	
712611935.000000	10	1.0677	-0.0315	0.0902	0.0026	-0.0033	-0.0022	0.0938	-0.5952	-0.4385	
712611935.000000	10	1.0677	-0.0315	0.0902	-0.0001	-0.0004	-0.0000	0.1309	-0.5682	-0.4269	
712611935.000000	10	1.0677	-0.0315	0.0901	-0.0001	0.0001	-0.0003	0.1086	-0.5454	-0.4114	
712611935.000000	10	1.0677	-0.0316	0.0902	-0.0004	-0.0012	0.0011	0.1375	-0.5432	-0.3564	
712611935.000000	10	1.0677	-0.0315	0.0901	-0.0002	0.0004	-0.0010	0.1058	-0.5211	-0.3798	
712611935.000000	10	1.0677	-0.0315	0.0902	-0.0002	-0.0001	-0.0000	0.1243	-0.5512	-0.4163	
712611935.000000	10	1.0680	-0.0315	0.0903	0.0030	0.0004	0.0028	-0.0208	-0.3468	-0.1935	
712611935.000000	10	1.0677	-0.0315	0.0902	0.0005	0.0003	0.0014	0.1181	-0.5631	-0.4284	
712611935.000000	10	1.0677	-0.0315	0.0902	-0.0004	-0.0006	0.0001	0.1262	-0.5659	-0.4223	
712611935.000000	10	1.0677	-0.0315	0.0902	-0.0002	-0.0004	-0.0003	0.1179	-0.5726	-0.4231	
712611935.000000	10	1.0677	-0.0316	0.0901	0.0003	-0.0004	-0.0012	0.1227	-0.5432	-0.4141	
712611935.000000	10	1.0677	-0.0316	0.0901	-0.0006	-0.0007	-0.0004	0.1941	-0.4989	-0.3616	
712611935.000000	10	1.0677	-0.0315	0.0902	0.0002	-0.0000	0.0009	0.1162	-0.5670	-0.4182	
712611935.000000	10	1.0675	-0.0313	0.0904	-0.0019	0.0045	0.0027	0.0414	-0.1881	-0.0221	
712611935.000000	10	1.0677	-0.0315	0.0902	0.0001	0.0001	0.0009	0.1167	-0.5670	-0.4161	
712611935.000000	10	1.0677	-0.0315	0.0902	-0.0003	0.0002	0.0001	0.0743	-0.6109	-0.4221	
712611935.000000	10	1.0677	-0.0315	0.0902	-0.0026	-0.0007	-0.0017	0.1093	-0.5559	-0.3970	
712611935.000000	10	1.0678	-0.0316	0.0902	0.0003	-0.0003	-0.0001	0.1239	-0.5821	-0.4394	
712611935.000000	10	1.0678	-0.0316	0.0901	0.0004	-0.0001	-0.0009	0.0979	-0.5294	-0.4008	
712611935.000000	10	1.0677	-0.0317	0.0901	-0.0003	-0.0015	-0.0005	0.1898	-0.5433	-0.4092	
712611935.000000	10	1.0677	-0.0315	0.0901	-0.0000	0.0005	0.0002	0.0979	-0.5236	-0.3927	
712611935.000000	10	1.0677	-0.0315	0.0901	0.0006	0.0008	-0.0000	0.1304	-0.6203	-0.4956	
712611935.000000	10	1.0677	-0.0316	0.0902	-0.0003	-0.0001	0.0002	0.1047	-0.6550	-0.4790	
712611935.000000	10	1.0677	-0.0315	0.0902	0.0028	-0.0034	-0.0025	0.1189	-0.5590	-0.4189	
712611935.000000	10	1.0677	-0.0315	0.0901	-0.0005	0.0002	-0.0006	0.1528	-0.6187	-0.4926	
712611935.000000	10	1.0677	-0.0315	0.0902	0.0004	-0.0003	-0.0002	0.1155	-0.5642	-0.4147	
712611935.000000	10	1.0677	-0.0315	0.0902	0.0000	0.0009	-0.0004	0.1028	-0.5326	-0.3991	
712611935.000000	10	1.0677	-0.0315	0.0902	-0.0003	0.0005	0.0004	0.1151	-0.5434	-0.4047	
712611935.000000	10	1.0677	-0.0315	0.0901	-0.0004	0.0002	-0.0000	0.1139	-0.5351	-0.4122	
712611935.000000	10	1.0678	-0.0315	0.0902	0.0008	0.0019	0.0009	0.0996	-0.5502	-0.4074	
712611935.000000	10	1.0677	-0.0315	0.0901	0.0000	0.0000	-0.0006	0.1144	-0.4981	-0.3875	
712611935.000000	10	1.0677	-0.0315	0.0902	0.0001	0.0001	0.0003	0.1194	-0.5691	-0.4329	
712611935.000000	10	1.0678	-0.0315	0.0901	0.0007	0.0005	-0.0006	0.1039	-0.5995	-0.4800	
712611935.000000	10	1.0677	-0.0315	0.0902	0.0000	0.0002	0.0001	0.0988	-0.5425	-0.3967	
712611935.000000	10	1.0677	-0.0315	0.0901	0.0002	0.0000	-0.0001	0.0997	-0.5279	-0.3925	
712611935.000000	10	1.0678	-0.0316	0.0902	0.0004	-0.0002	-0.0000	0.1130	-0.5730	-0.4367	
712611935.000000	10	1.0677	-0.0315	0.0901	-0.0003	-0.0011	-0.0013	0.1055	-0.5748	-0.4623	
712611935.000000	10	1.0677	-0.0315	0.0902	0.0002	0.0001	-0.0005	0.1128	-0.6060	-0.4828	
712611935.000000	10	1.0677	-0.0315	0.0901	-0.0008	0.0006	0.0004	0.1006	-0.5852	-0.4159	
712611935.000000	10	1.0677	-0.0315	0.0901	-0.0007	-0.0000	-0.0009	0.1017	-0.5246	-0.3924	
712611935.000000	10	1.0678	-0.0315	0.0902	0.0005	-0.0001	0.0014	0.1017	-0.5468	-0.4227	
712611935.000000	10	1.0677	-0.0316	0.0901	-0.0003	-0.0003	-0.0008	0.1150	-0.5386	-0.4186	
712611935.000000	10	1.0677	-0.0315	0.0902	-0.0001	-0.0002	0.0005	0.1205	-0.5664	-0.4342	
712611935.000000	10	1.0677	-0.0315	0.0901	-0.0001	0.0003	-0.0006	0.0776	-0.4869	-0.3595	
712611935.000000	10	1.0677	-0.0315	0.0902	0.0004	-0.0001	0.0009	0.1075	-0.5501	-0.4243	
712611935.000000	10	1.0677	-0.0315	0.0902	-0.0010	0.0004	-0.0000	0.0827	-0.6647	-0.4766	
712611935.000000	10	1.0677	-0.0314	0.0903	-0.0001	0.0012	0.0024	0.0415	-0.5516	-0.3699	
712611935.000000	10	1.0677	-0.0315	0.0902	-0.0003	0.0000	0.0005	0.1044	-0.5551	-0.3935	
712611935.000000	10	1.0677	-0.0315	0.0902	0.0010	-0.0004	0.0006	0.1123	-0.5363	-0.3974	
712611935.000000	10	1.0677	-0.0315	0.0901	-0.0005	0.0003	0.0000	0.0585	-0.4722	-0.4515	
712611935.000000	10	1.0677	-0.0316	0.0901	-0.0001	-0.0006	-0.0005	0.1196	-0.6055	-0.4652	
712611935.000000	10	1.0677	-0.0315	0.0902	0.0004	0.0003	0.0010	0.1162	-0.5682	-0.4330	
712611935.000000	10	1.0677	-0.0315	0.0902	-0.0001	-0.0000	0.0001	0.1287	-0.5669	-0.4419	
712611935.000000	10	1.0677	-0.0315	0.0901	-0.0001	-0.0002	0.0001	0.1155	-0.5891	-0.4656	
712611935.000000	10	1.0677	-0.0315	0.0901	-0.0005	0.0002	-0.0009	0.0901	-0.5162	-0.3803	
712611935.000000	10	1.0677	-0.0315	0.0901	0.0006	-0.0003	-0.0002	0.1267	-0.6175	-0.4858	
712611935.000000	10	1.0677	-0.0315	0.0901	0.0004	-0.0004	-0.0013	0.1143	-0.5431	-0.4205	
712611935.000000	10	1.0678	-0.0316	0.0902	0.0004	-0.0007	-0.0001	0.1192	-0.5979	-0.4338	
712611935.000000	10	1.0677	-0.0316	0.0902	-0.0001	-0.0011	0.0003	0.1694	-0.5235	-0.3921	
712611935.000000	10	1.0677	-0.0315	0.0902	0.0009	-0.0000	0.0010	0.1013	-0.5460	-0.3971	
712611935.000000	10	1.0677	-0.0316	0.0901	-0.0002	-0.0002	-0.0007	0.1164	-0.5638	-0.4316	
712611935.000000	10	1.0677	-0.0315	0.0902	0.0001	0.0005	0.0002	0.0879	-0.5371	-0.4006	
712611935.000000	10	1.0677	-0.0315	0.0902	0.0001	0.0003	0.0000	0.0938	-0.5363	-0.4004	
712611935.000000	10	1.0677	-0.0315	0.0901	-0.0000	-0.0005	-0.0002	0.1291	-0.6185	-0.4773	
712611935.000000	10	1.0677	-0.0315	0.0902	0.0003	0.0001	0.0009	0.1004	-0.5456	-0.3999	
712611935.000000	10	1.0678	-0.0316	0.0902	0.0004	-0.0002	0.0002	0.1259	-0.5750	-0.4376	
712611935.000000	10	1.0677	-0.0315	0.0901	-0.0003	-0.0007	-0.0005	0.1180	-0.5478	-0.4208	
712611935.000000	10	1.0675	-0.0313	0.0903	-0.0033	0.0034	0.0016	0.0709	-0.2787	-0.1320	
712611935.000000	10	1.0677	-0.0315	0.0901	-0.0002	0.0013	-0.0013	0.1047	-0.5265	-0.4625	
712611935.000000	10	1.0677	-0.0315	0.0902	0.0000	0.0000	-0.0000	0.0885	-0.5462	-0.3921	
712611935.000000	10	1.0677	-0.0315	0.0902	0.0001	0.0008	0.0012	0.1239	-0.5636	-0.4387	
712611935.000000	10	1.0677	-0.0315	0.0902	0.0001	-0.0002	-0.0001	0.1262	-0.5627	-0.4391	
712611935.000000	10	1.0677	-0.0315	0.0902	0.0000	-0.0003	-0.0002	0.1138	-0.5597	-0.4303	
712611935.000000	10	1.0677	-0.0315	0.0902	0.0003	0.0001	0.0005	0.1158	-0.5662	-0.4340	
712611935.000000	10	1.0677	-0.0315	0.0901	0.0000	-0.0000	-0.0005	0.1065	-0.5844	-0.4601	
712611935.000000	10	1.0677	-0.0316	0.0900	-0.0003	-0.0001	-0.0014	0.1056	-0.4833	-0.4360	
712611935.000000	10	1.0677	-0.0315	0.0902	-0.0002	0.0009	0.0014	0.0628	-0.5760	-0.3963	
712611935.000000	10	1.0678	-0.0315	0.0902	0.0035	-0.0026	-0.0013	0.0948	-0.5246	-0.3981	
712611935.000000	10	1.0677	-0.0315	0.0902	0.0004	-0.0002	0.0009	0.1247	-0.5649	-0.4259	
712611935.000000	10	1.0675	-0.0313	0.0904	-0.0027	0.0027	0.0031	0.0591	-0.2288	-0.0822	
712611935.000000	10	1.0678	-0.0315	0.0902	0.0002	-0.0003	-0.0001	0.1140	-0.5728	-0.4384	
712611935.000000	10	1.0677	-0.0315	0.0901	-0.0004	-0.0000	-0.0005	0.1130	-0.5851	-0.4645	
712611935.000000	10	1.0677	-0.0315	0.0902	-0.0005	0.0002	0.0003	0.1092	-0.6159	-0.4592	
712611935.000000	10	1.0677	-0.0316	0.0902	-0.0003	-0.0007	0.0006	0.1761	-0.5234	-0.3853	
712611935.000000	10	1.0677	-0.0315	0.0902	-0.0005	-0.0000	0.0007	0.0912	-0.6079	-0.4340	
712611935.000000	10	1.0677	-0.0315	0.0902	0.0001	0.0004	0.0015	0.1254	-0.5568	-0.4253	
712611935.000000	10	1.0677	-0.0315	0.0902	0.0005	-0.0009	-0.0006	0.1290	-0.5636	-0.4263	
712611935.000000	10	1.0677	-0.0315	0.0902	-0.0006	-0.0003	-0.0004	0.1183	-0.5508	-0.4314	
712611935.000000	10	1.0677	-0.0316	0.0902	-0.0001	-0.0003	-0.0000	0.1198	-0.5693	-0.4196	
712611935.000000	10	1.0677	-0.0315	0.0902	0.0020	-0.0028	-0.0033	0.0944	-0.6473	-0.4931	
712611935.000000	10	1.0677	-0.0315	0.0901	-0.0006	0.0003	-0.0007	0.0963	-0.5104	-0.3885	
712612777.000000	10	1.0677	-0.0315	0.0902	-0.0005	-0.0001	0.0002	0.0936	-0.6596	-0.4816	
712612777.000000	10	1.0678	-0.0315	0.0902	0.0008	-0.0003	0.0001	0.1040	-0.5691	-0.4260	
712612777.000000	10	1.0678	-0.0316	0.0901	0.0006	0.0006	-0.0010	0.1150	-0.6139	-0.4672	
712612777.000000	10	1.0677	-0.0315	0.0902	0.0006	-0.0003	-0.0005	0.1144	-0.5592	-0.4271	
712612777.000000	10	1.0678	-0.0316	0.0902	0.0003	-0.0002	0.0001	0.1193	-0.5808	-0.4389	
712612777.000000	10	1.0677	-0.0315	0.0902	0.0000	0.0004	0.0002	0.0970	-0.5422	-0.3995	
712612777.000000	10	1.0677	-0.0316	0.0900	-0.0005	-0.0005	-0.0016	0.1167	-0.6063	-0.4749	
712612777.000000	10	1.0677	-0.0315	0.0902	0.0002	0.0009	0.0003	0.1027	-0.5286	-0.4178	
712612777.000000	10	1.0678	-0.0315	0.0902	0.0008	-0.0002	0.0002	0.1007	-0.5429	-0.3916	
712612777.000000	10	1.0678	-0.0315	0.0902	0.0007	0.0003	0.0009	0.1198	-0.5469	-0.4232	
712612777.000000	10	1.0678	-0.0316	0.0902	0.0009	-0.0005	0.0001	0.1224	-0.5824	-0.4448	
712612777.000000	10	1.0677	-0.0316	0.0902	-0.0004	-0.0002	0.0001	0.1178	-0.5531	-0.3945	
712612777.000000	10	1.0675	-0.0313	0.0904	-0.0031	0.0032	0.0026	0.0563	-0.2135	-0.0667	
712612777.000000	10	1.0678	-0.0316	0.0902	0.0002	-0.0004	-0.0000	0.1234	-0.5768	-0.4482	
712612777.000000	10	1.0677	-0.0315	0.0901	-0.0004	0.0011	-0.0005	0.0942	-0.5229	-0.3906	
712612777.000000	10	1.0677	-0.0315	0.0902	-0.0006	0.0002	0.0002	0.0809	-0.6062	-0.4350	
712612777.000000	10	1.0677	-0.0317	0.0902	0.0003	-0.0010	0.0018	0.1946	-0.5454	-0.4060	
712612777.000000	10	1.0677	-0.0316	0.0901	-0.0004	-0.0009	-0.0012	0.1305	-0.5475	-0.4248	
712612777.000000	10	1.0677	-0.0315	0.0902	-0.0002	-0.0001	-0.0003	0.1201	-0.5596	-0.4324	
712612777.000000	10	1.0678	-0.0315	0.0901	-0.0002	-0.0004	-0.0006	0.1257	-0.5655	-0.4411	
712612777.000000	10	1.0677	-0.0315	0.0901	-0.0006	0.0006	-0.0007	0.0859	-0.5246	-0.3883	
712612777.000000	10	1.0678	-0.0316	0.0902	0.0004	0.0000	-0.0005	0.1320	-0.5755	-0.4492	
712612777.000000	10	1.0677	-0.0315	0.0902	0.0028	-0.0032	-0.0022	0.1208	-0.5742	-0.4292	
712612777.000000	10	1.0677	-0.0316	0.0901	-0.0005	0.0002	-0.0004	0.1327	-0.6301	-0.4904	
712612777.000000	10	1.0677	-0.0315	0.0901	-0.0004	-0.0009	-0.0005	0.1108	-0.5468	-0.4129	
712612777.000000	10	1.0677	-0.0315	0.0902	0.0005	0.0000	-0.0002	0.0994	-0.5428	-0.4040	
712612777.000000	10	1.0677	-0.0316	0.0902	0.0004	0.0011	0.0001	0.1165	-0.5916	-0.4213	
712612777.000000	10	1.0677	-0.0315	0.0902	0.0004	0.0007	0.0011	0.0926	-0.5419	-0.4068	
712612777.000000	10	1.0677	-0.0316	0.0902	0.0001	-0.0005	-0.0001	0.1166	-0.5832	-0.4256	
712612777.000000	10	1.0677	-0.0315	0.0902	-0.0003	-0.0002	0.0004	0.1242	-0.5608	-0.4223	
712612777.000000	10	1.0677	-0.0316	0.0901	0.0004	-0.0005	-0.0004	0.1112	-0.5493	-0.4263	
712612777.000000	10	1.0677	-0.0315	0.0903	-0.0003	0.0002	0.0010	0.1392	-0.4514	-0.3146	
712612777.000000	10	1.0677	-0.0315	0.0902	-0.0000	0.0000	-0.0000	0.1208	-0.5662	-0.4253	
712612777.000000	10	1.0677	-0.0315	0.0902	-0.0003	0.0005	0.0008	0.0759	-0.6084	-0.4181	
712612777.000000	10	1.0677	-0.0316	0.0901	0.0003	-0.0002	-0.0002	0.1065	-0.5490	-0.4187	
712612777.000000	10	1.0677	-0.0315	0.0902	0.0002	0.0004	-0.0001	0.1013	-0.5224	-0.4147	
712612777.000000	10	1.0678	-0.0315	0.0902	0.0002	0.0004	-0.0001	0.1039	-0.5310	-0.3872	
712612777.000000	10	1.0677	-0.0316	0.0901	-0.0006	-0.0017	-0.0009	0.1933	-0.5162	-0.4025	
712612777.000000	10	1.0677	-0.0315	0.0901	-0.0003	0.0004	-0.0003	0.1285	-0.6192	-0.4912	
712612777.000000	10	1.0677	-0.0315	0.0901	-0.0002	0.0003	-0.0006	0.0996	-0.6475	-0.4950	
712612777.000000	10	1.0677	-0.0315	0.0902	-0.0005	0.0010	0.0016	0.0660	-0.5735	-0.3995	
712612777.000000	10	1.0677	-0.0315	0.0902	-0.0002	0.0000	-0.0010	0.1218	-0.5733	-0.4320	
712612777.000000	10	1.0677	-0.0315	0.0902	0.0001	0.0003	0.0005	0.1000	-0.5363	-0.3969	
712612777.000000	10	1.0677	-0.0315	0.0902	0.0005	-0.0004	-0.0004	0.1136	-0.5562	-0.4239	
712612777.000000	10	1.0677	-0.0315	0.0901	-0.0001	0.0002	0.0003	0.1089	-0.5180	-0.3912	
712612777.000000	10	1.0677	-0.0316	0.0901	-0.0001	-0.0012	-0.0012	0.1117	-0.5543	-0.4196	
712612777.000000	10	1.0675	-0.0313	0.0904	-0.0029	0.0030	0.0023	0.0713	-0.2997	-0.1498	
712612777.000000	10	1.0677	-0.0315	0.0902	0.0005	0.0012	0.0007	0.1222	-0.5686	-0.4254	
712612777.000000	10	1.0677	-0.0316	0.0902	-0.0006	-0.0004	0.0002	0.0444	-0.6208	-0.3783	
712612777.000000	10	1.0677	-0.0315	0.0900	-0.0003	-0.0001	-0.0010	0.1196	-0.5305	-0.4089	
712612777.000000	10	1.0677	-0.0315	0.0902	0.0003	-0.0007	-0.0006	0.1117	-0.5573	-0.4267	
712612777.000000	10	1.0677	-0.0315	0.0902	-0.0003	0.0009	0.0009	0.0490	-0.5551	-0.3722	
712612777.000000	10	1.0677	-0.0316	0.0901	-0.0004	-0.0003	-0.0012	0.1083	-0.5099	-0.3960	
712612777.000000	10	1.0677	-0.0315	0.0902	-0.0003	0.0002	0.0005	0.0947	-0.6120	-0.4311	
712612777.000000	10	1.0677	-0.0316	0.0900	-0.0002	-0.0001	-0.0007	0.1025	-0.4746	-0.4190	
712612777.000000	10	1.0677	-0.0315	0.0902	-0.0001	0.0009	0.0014	0.1105	-0.5389	-0.4120	
712612777.000000	10	1.0678	-0.0315	0.0902	0.0030	-0.0028	-0.0027	0.0998	-0.5737	-0.4547	
712612777.000000	10	1.0677	-0.0316	0.0901	-0.0001	-0.0001	-0.0007	0.1342	-0.6203	-0.4817	
712612777.000000	10	1.0677	-0.0315	0.0901	0.0008	0.0006	-0.0001	0.1272	-0.5576	-0.4329	
712612777.000000	10	1.0677	-0.0315	0.0901	0.0003	0.0002	0.0010	0.0888	-0.5152	-0.3880	
712612777.000000	10	1.0677	-0.0316	0.0901	-0.0002	-0.0002	-0.0008	0.1113	-0.5126	-0.3936	
712612777.000000	10	1.0677	-0.0315	0.0902	0.0005	-0.0003	-0.0005	0.0986	-0.5307	-0.4085	
712612777.000000	10	1.0678	-0.0315	0.0902	0.0005	0.0004	0.0009	0.0998	-0.5510	-0.4044	
712612777.000000	10	1.0677	-0.0315	0.0902	0.0003	0.0001	-0.0003	0.1006	-0.5351	-0.4022	
712612777.000000	10	1.0677	-0.0315	0.0902	0.0004	0.0006	0.0019	0.1020	-0.5359	-0.4067	
712612777.000000	10	1.0677	-0.0315	0.0902	-0.0001	-0.0006	-0.0003	0.1208	-0.5710	-0.4244	
712612777.000000	10	1.0677	-0.0315	0.0901	-0.0005	-0.0002	-0.0003	0.1336	-0.6125	-0.4918	
712612777.000000	10	1.0677	-0.0316	0.0901	-0.0003	-0.0001	-0.0004	0.1218	-0.5343	-0.4185	
712612777.000000	10	1.0675	-0.0312	0.0904	-0.0029	0.0034	0.0035	0.0779	-0.2299	-0.0825	
712612777.000000	10	1.0677	-0.0315	0.0901	0.0000	0.0000	0.0002	0.1068	-0.6076	-0.4504	
712612777.000000	10	1.0677	-0.0315	0.0902	0.0003	0.0002	0.0009	0.1150	-0.5581	-0.4284	
712612777.000000	10	1.0677	-0.0315	0.0902	0.0001	-0.0003	-0.0001	0.1283	-0.5650	-0.4392	
712612777.000000	10	1.0677	-0.0315	0.0902	-0.0004	-0.0001	0.0007	0.0944	-0.5620	-0.4060	
712612777.000000	10	1.0677	-0.0315	0.0901	-0.0009	0.0003	-0.0010	0.0597	-0.6135	-0.4443	
712612777.000000	10	1.0677	-0.0316	0.0902	0.0000	-0.0015	-0.0001	0.1611	-0.5350	-0.3861	
712612777.000000	10	1.0677	-0.0315	0.0901	-0.0000	0.0001	-0.0007	0.1009	-0.5045	-0.3891	
712612777.000000	10	1.0677	-0.0316	0.0901	0.0001	-0.0005	-0.0007	0.1244	-0.5562	-0.4246	
712612777.000000	10	1.0677	-0.0315	0.0901	0.0003	0.0002	0.0006	0.1300	-0.6176	-0.4879	
712612777.000000	10	1.0677	-0.0315	0.0902	0.0027	-0.0035	-0.0029	0.1154	-0.5369	-0.3997	
712612777.000000	10	1.0677	-0.0315	0.0902	0.0002	-0.0003	0.0004	0.1140	-0.5661	-0.4237	
712612777.000000	10	1.0677	-0.0316	0.0902	-0.0002	-0.0002	-0.0002	0.1163	-0.5637	-0.4299	
712612777.000000	10	1.0677	-0.0315	0.0902	-0.0006	0.0001	0.0005	0.0804	-0.5747	-0.4105	
712612777.000000	10	1.0677	-0.0315	0.0901	-0.0003	-0.0002	-0.0017	0.1245	-0.5498	-0.4237	
712612777.000000	10	1.0677	-0.0315	0.0902	0.0011	-0.0000	0.0011	0.0971	-0.5263	-0.3893	
712612777.000000	10	1.0677	-0.0315	0.0902	-0.0005	0.0015	0.0004	0.0698	-0.5817	-0.3987	
712612777.000000	10	1.0677	-0.0317	0.0902	0.0000	-0.0017	0.0007	0.1934	-0.5496	-0.4047	
712612777.000000	10	1.0675	-0.0313	0.0905	-0.0024	0.0035	0.0045	0.0572	-0.2427	-0.0716	
712612777.000000	10	1.0679	-0.0315	0.0903	0.0023	0.0001	0.0019	-0.0355	-0.4062	-0.2233	
712612777.000000	10	1.0677	-0.0315	0.0902	-0.0004	0.0004	0.0003	0.0632	-0.5752	-0.3994	
712612777.000000	10	1.0677	-0.0315	0.0902	-0.0006	0.0002	0.0004	0.0775	-0.6050	-0.4189	
712612777.000000	10	1.0678	-0.0316	0.0902	0.0005	-0.0001	0.0000	0.1270	-0.5799	-0.4486	
712612777.000000	10	1.0678	-0.0315	0.0902	0.0007	-0.0001	-0.0008	0.0969	-0.5765	-0.4449	
712612777.000000	10	1.0677	-0.0315	0.0901	0.0006	0.0003	0.0007	0.1177	-0.6054	-0.4791	
712612777.000000	10	1.0677	-0.0316	0.0901	-0.0002	-0.0008	-0.0011	0.1211	-0.5587	-0.4204	
712612777.000000	10	1.0678	-0.0315	0.0902	0.0009	0.0003	-0.0008	0.1259	-0.5405	-0.4053	
712612777.000000	10	1.0677	-0.0315	0.0901	-0.0002	0.0023	-0.0004	0.1449	-0.5491	-0.4308	
712612777.000000	10	1.0678	-0.0315	0.0902	0.0029	-0.0032	-0.0033	0.1185	-0.5721	-0.4382	
712612777.000000	10	1.0677	-0.0315	0.0902	-0.0024	0.0004	-0.0011	0.0593	-0.5967	-0.4133	
712612777.000000	10	1.0677	-0.0315	0.0902	0.0005	-0.0002	-0.0003	0.0938	-0.5358	-0.4030	
712612777.000000	10	1.0677	-0.0315	0.0901	0.0006	-0.0003	-0.0010	0.0966	-0.5082	-0.3893	
712612777.000000	10	1.0677	-0.0315	0.0902	-0.0002	0.0003	0.0004	0.1042	-0.5361	-0.3881	
712613619.000000	10	1.0677	-0.0315	0.0902	-0.0003	-0.0002	0.0000	0.1168	-0.5907	-0.4563	
712613619.000000	10	1.0677	-0.0315	0.0901	-0.0005	-0.0001	-0.0004	0.1269	-0.5195	-0.3876	
712613619.000000	10	1.0677	-0.0315	0.0901	-0.0004	0.0003	0.0005	0.0926	-0.5433	-0.3831	
712613619.000000	10	1.0677	-0.0316	0.0901	-0.0005	-0.0008	-0.0003	0.1393	-0.6264	-0.4838	
712613619.000000	10	1.0676	-0.0315	0.0901	-0.0008	-0.0006	-0.0007	0.0834	-0.6394	-0.4649	
712613619.000000	10	1.0677	-0.0316	0.0902	-0.0003	-0.0001	0.0002	0.1003	-0.5662	-0.4083	
712613619.000000	10	1.0678	-0.0315	0.0902	0.0006	-0.0002	-0.0001	0.1005	-0.5595	-0.4212	
712613619.000000	10	1.0678	-0.0316	0.0902	0.0002	-0.0005	-0.0005	0.1126	-0.5715	-0.4297	
712613619.000000	10	1.0677	-0.0315	0.0902	-0.0002	0.0006	0.0011	0.0552	-0.5950	-0.3951	
712613619.000000	10	1.0677	-0.0316	0.0902	-0.0002	-0.0002	-0.0006	0.1178	-0.5768	-0.4284	
712613619.000000	10	1.0680	-0.0315	0.0902	0.0026	0.0007	0.0002	-0.0439	-0.4212	-0.2894	
712613619.000000	10	1.0677	-0.0315	0.0901	-0.0001	-0.0003	-0.0003	0.1232	-0.5487	-0.4067	
712613619.000000	10	1.0675	-0.0313	0.0904	-0.0022	0.0033	0.0035	0.0551	-0.2294	-0.0617	
712613619.000000	10	1.0678	-0.0315	0.0902	0.0004	0.0003	0.0008	0.1107	-0.5460	-0.4063	
712613619.000000	10	1.0677	-0.0316	0.0901	0.0009	-0.0005	-0.0000	0.1138	-0.5611	-0.4285	
712613619.000000	10	1.0674	-0.0313	0.0903	-0.0038	0.0033	0.0016	0.0315	-0.3147	-0.1256	
712613619.000000	10	1.0677	-0.0315	0.0901	-0.0006	-0.0003	-0.0006	0.1333	-0.6204	-0.4899	
712613619.000000	10	1.0678	-0.0315	0.0902	0.0002	0.0004	0.0004	0.1011	-0.5520	-0.4216	
712613619.000000	10	1.0677	-0.0315	0.0902	0.0004	-0.0003	-0.0007	0.1216	-0.5530	-0.4332	
712613619.000000	10	1.0678	-0.0315	0.0902	0.0003	0.0002	0.0005	0.1064	-0.5356	-0.4117	
712613619.000000	10	1.0677	-0.0315	0.0902	-0.0032	-0.0005	0.0001	0.0912	-0.5941	-0.4387	
712613619.000000	10	1.0677	-0.0315	0.0902	0.0004	0.0000	0.0011	0.1238	-0.5636	-0.4333	
712613619.000000	10	1.0676	-0.0316	0.0901	0.0012	-0.0045	-0.0040	0.1672	-0.6157	-0.4432	
712613619.000000	10	1.0677	-0.0315	0.0902	-0.0003	-0.0001	-0.0003	0.1245	-0.5671	-0.4358	
712613619.000000	10	1.0677	-0.0316	0.0901	-0.0001	0.0003	0.0004	0.1276	-0.6135	-0.4727	
712613619.000000	10	1.0677	-0.0315	0.0902	0.0037	-0.0032	-0.0019	0.1172	-0.5670	-0.4289	
712613619.000000	10	1.0677	-0.0316	0.0900	-0.0002	-0.0007	-0.0017	0.1072	-0.4300	-0.4517	
712613619.000000	10	1.0677	-0.0316	0.0901	-0.0004	-0.0005	-0.0013	0.1107	-0.5587	-0.4271	
712613619.000000	10	1.0677	-0.0316	0.0901	-0.0005	-0.0004	-0.0007	0.1233	-0.5379	-0.4096	
712613619.000000	10	1.0677	-0.0315	0.0901	-0.0004	0.0003	-0.0011	0.1096	-0.5184	-0.4720	
712613619.000000	10	1.0677	-0.0316	0.0902	0.0004	-0.0005	-0.0003	0.1233	-0.5697	-0.4217	
712613619.000000	10	1.0677	-0.0315	0.0902	-0.0002	0.0004	-0.0002	0.1147	-0.5774	-0.4636	
712613619.000000	10	1.0680	-0.0315	0.0904	0.0044	0.0018	0.0032	-0.0077	-0.3250	-0.2036	
712613619.000000	10	1.0677	-0.0315	0.0902	0.0000	0.0003	0.0002	0.1045	-0.5404	-0.4059	
712613619.000000	10	1.0675	-0.0313	0.0904	-0.0027	0.0031	0.0029	0.0551	-0.2120	-0.0607	
712613619.000000	10	1.0677	-0.0315	0.0902	-0.0000	-0.0000	-0.0001	0.1220	-0.5603	-0.4344	
712613619.000000	10	1.0677	-0.0316	0.0901	0.0001	0.0002	0.0012	0.1213	-0.5521	-0.4272	
712613619.000000	10	1.0677	-0.0316	0.0901	-0.0007	-0.0010	0.0002	0.1817	-0.5492	-0.4183	
712613619.000000	10	1.0677	-0.0316	0.0901	0.0003	-0.0002	-0.0003	0.1136	-0.5662	-0.4291	
712613619.000000	10	1.0677	-0.0316	0.0902	0.0003	-0.0010	0.0009	0.1680	-0.5408	-0.4311	
712613619.000000	10	1.0677	-0.0315	0.0902	0.0000	0.0001	-0.0001	0.1234	-0.5607	-0.4208	
712613619.000000	10	1.0677	-0.0315	0.0901	0.0001	-0.0005	-0.0006	0.1033	-0.5114	-0.3772	
712613619.000000	10	1.0678	-0.0315	0.0902	-0.0025	-0.0001	-0.0019	0.0990	-0.5465	-0.4181	
712613619.000000	10	1.0677	-0.0315	0.0901	-0.0000	-0.0001	-0.0013	0.1178	-0.5238	-0.4123	
712613619.000000	10	1.0677	-0.0315	0.0902	0.0027	-0.0022	-0.0020	0.0881	-0.5931	-0.4299	
712613619.000000	10	1.0677	-0.0315	0.0901	-0.0003	0.0001	-0.0004	0.1253	-0.6128	-0.4743	
712613619.000000	10	1.0678	-0.0316	0.0902	0.0004	0.0002	0.0009	0.1266	-0.5768	-0.4439	
712613619.000000	10	1.0677	-0.0315	0.0902	0.0001	0.0017	0.0014	0.0946	-0.6094	-0.4384	
712613619.000000	10	1.0677	-0.0315	0.0902	-0.0001	0.0004	0.0012	0.1221	-0.5637	-0.4409	
712613619.000000	10	1.0677	-0.0315	0.0901	-0.0006	0.0007	-0.0012	0.1085	-0.5663	-0.4393	
712613619.000000	10	1.0677	-0.0315	0.0902	0.0001	0.0002	0.0000	0.1164	-0.5608	-0.4282	
712613619.000000	10	1.0677	-0.0316	0.0901	0.0001	-0.0004	-0.0003	0.1144	-0.5640	-0.4281	
712613619.000000	10	1.0677	-0.0315	0.0902	-0.0008	-0.0003	-0.0005	0.0878	-0.6771	-0.4907	
712613619.000000	10	1.0677	-0.0315	0.0901	-0.0003	-0.0002	0.0003	0.1092	-0.5403	-0.4143	
712613619.000000	10	1.0677	-0.0315	0.0901	0.0003	-0.0005	-0.0007	0.1138	-0.6094	-0.4879	
712613619.000000	10	1.0678	-0.0316	0.0901	0.0006	-0.0002	-0.0000	0.1037	-0.5062	-0.4462	
712613619.000000	10	1.0677	-0.0315	0.0901	-0.0005	0.0001	-0.0008	0.1123	-0.5403	-0.4057	
712613619.000000	10	1.0675	-0.0313	0.0904	-0.0026	0.0030	0.0024	0.0332	-0.3270	-0.1369	
712613619.000000	10	1.0677	-0.0315	0.0901	-0.0003	0.0002	-0.0008	0.1299	-0.5474	-0.4140	
712613619.000000	10	1.0678	-0.0316	0.0902	0.0006	-0.0003	0.0010	0.1203	-0.5794	-0.4405	
712613619.000000	10	1.0678	-0.0316	0.0902	0.0001	-0.0004	0.0000	0.1192	-0.5804	-0.4413	
712613619.000000	10	1.0678	-0.0316	0.0902	0.0003	0.0004	0.0010	0.1181	-0.5810	-0.4408	
712613619.000000	10	1.0677	-0.0315	0.0901	0.0002	-0.0000	-0.0003	0.1261	-0.6270	-0.4850	
712613619.000000	10	1.0677	-0.0315	0.0902	0.0005	0.0003	0.0010	0.1247	-0.5619	-0.4353	
712613619.000000	10	1.0677	-0.0316	0.0901	-0.0001	-0.0005	-0.0008	0.1202	-0.5837	-0.4678	
712613619.000000	10	1.0677	-0.0315	0.0901	-0.0002	0.0010	0.0000	0.1263	-0.5393	-0.4292	
712613619.000000	10	1.0677	-0.0315	0.0902	0.0003	0.0005	0.0011	0.1057	-0.5457	-0.4100	
712613619.000000	10	1.0677	-0.0315	0.0901	0.0024	-0.0032	-0.0035	0.0764	-0.5806	-0.4200	
712613619.000000	10	1.0677	-0.0315	0.0902	0.0003	-0.0001	0.0007	0.1129	-0.5695	-0.4304	
712613619.000000	10	1.0677	-0.0315	0.0901	-0.0006	0.0004	-0.0006	0.0883	-0.5170	-0.3919	
712613619.000000	10	1.0677	-0.0316	0.0902	-0.0003	0.0001	0.0000	0.1248	-0.5564	-0.4351	
712613619.000000	10	1.0677	-0.0315	0.0902	-0.0002	0.0005	0.0003	0.1006	-0.5403	-0.4011	
712613619.000000	10	1.0677	-0.0315	0.0902	-0.0002	0.0005	0.0006	0.0923	-0.5818	-0.4335	
712613619.000000	10	1.0677	-0.0317	0.0901	-0.0008	-0.0017	-0.0010	0.1937	-0.5184	-0.3794	
712613619.000000	10	1.0677	-0.0316	0.0902	0.0000	0.0002	0.0012	0.1144	-0.5687	-0.4275	
712613619.000000	10	1.0677	-0.0316	0.0901	-0.0004	-0.0010	-0.0004	0.1193	-0.5433	-0.4243	
712613619.000000	10	1.0677	-0.0315	0.0902	-0.0005	-0.0002	-0.0001	0.0759	-0.5882	-0.4245	
712613619.000000	10	1.0677	-0.0315	0.0902	0.0008	-0.0002	0.0005	0.1186	-0.5737	-0.4431	
712613619.000000	10	1.0678	-0.0316	0.0902	0.0003	-0.0004	-0.0000	0.1230	-0.5792	-0.4365	
712613619.000000	10	1.0678	-0.0315	0.0902	0.0009	-0.0002	0.0008	0.1044	-0.5472	-0.4140	
712613619.000000	10	1.0677	-0.0315	0.0902	0.0001	0.0006	0.0002	0.1034	-0.5409	-0.4035	
712613619.000000	10	1.0677	-0.0315	0.0902	0.0001	-0.0003	-0.0002	0.1189	-0.5679	-0.4217	
712613619.000000	10	1.0677	-0.0316	0.0902	0.0006	-0.0010	-0.0003	0.1161	-0.5721	-0.4334	
712613619.000000	10	1.0677	-0.0315	0.0901	0.0005	0.0018	0.0001	0.0906	-0.5101	-0.3943	
712613619.000000	10	1.0677	-0.0316	0.0901	-0.0007	-0.0000	-0.0006	0.0823	-0.6017	-0.4172	
712613619.000000	10	1.0677	-0.0315	0.0901	0.0002	0.0002	0.0002	0.1123	-0.5002	-0.4331	
712613619.000000	10	1.0677	-0.0315	0.0901	0.0006	-0.0002	-0.0010	0.1323	-0.6061	-0.4857	
712613619.000000	10	1.0677	-0.0315	0.0902	-0.0006	0.0003	0.0004	0.0953	-0.6005	-0.4362	
712613619.000000	10	1.0677	-0.0316	0.0902	-0.0003	0.0002	-0.0001	0.1241	-0.5598	-0.4328	
712613619.000000	10	1.0677	-0.0315	0.0902	-0.0008	0.0002	0.0000	0.1451	-0.5731	-0.4303	
712613619.000000	10	1.0677	-0.0316	0.0901	-0.0001	-0.0008	-0.0011	0.1110	-0.5572	-0.4324	
712613619.000000	10	1.0677	-0.0316	0.0901	-0.0002	-0.0003	-0.0009	0.1147	-0.5479	-0.4160	
712613619.000000	10	1.0677	-0.0315	0.0902	-0.0008	0.0006	0.0008	0.1023	-0.6176	-0.4249	
712613619.000000	10	1.0678	-0.0315	0.0902	0.0003	-0.0003	0.0008	0.1064	-0.5645	-0.4242	
712613619.000000	10	1.0678	-0.0315	0.0902	0.0010	0.0003	0.0008	0.1003	-0.5459	-0.4110	
712613619.000000	10	1.0677	-0.0315	0.0902	0.0001	0.0001	0.0007	0.1201	-0.5510	-0.4252	
712613619.000000	10	1.0677	-0.0315	0.0902	-0.0000	0.0001	0.0011	0.1262	-0.5545	-0.4300	
712613619.000000	10	1.0677	-0.0316	0.0900	0.0004	-0.0009	-0.0021	0.1220	-0.6032	-0.4759	
712613619.000000	10	1.0677	-0.0315	0.0902	0.0001	0.0003	0.0002	0.1220	-0.5648	-0.4377	
712613619.000000	10	1.0677	-0.0315	0.0902	0.0002	-0.0000	-0.0002	0.1175	-0.5681	-0.4256	
712613619.000000	10	1.0677	-0.0315	0.0901	-0.0001	0.0003	0.0003	0.1070	-0.4953	-0.4347	
712614460.000000	10	1.0677	-0.0316	0.0902	-0.0000	0.0001	0.0007	0.1200	-0.5619	-0.4313	
712614460.000000	10	1.0677	-0.0315	0.0902	0.0006	-0.0003	-0.0005	0.1199	-0.5675	-0.4293	
712614460.000000	10	1.0678	-0.0316	0.0902	0.0001	-0.0006	0.0001	0.1200	-0.6041	-0.4429	
